{"version": 0.6, "generator": "Overpass API 0.7.62.5 1bd436f1", "osm3s": {"timestamp_osm_base": "2025-05-20T12:44:15Z", "copyright": "The data included in this document is from www.openstreetmap.org. The data is made available under ODbL."}, "elements": [{"type": "node", "id": 51334254, "lat": 25.0151332, "lon": 121.3059491, "tags": {"addr:city": "\u6843\u5712\u5e02", "addr:country": "TW", "addr:district": "\u6843\u5712\u5340", "addr:housenumber": "313", "addr:street": "\u7d93\u570b\u8def", "brand": "\u5927\u5009\u9177\u773c\u93e1", "brand:en": "dcool", "brand:wikidata": "Q132360433", "brand:zh": "\u5927\u5009\u9177\u773c\u93e1", "check_date": "2024-12-08", "disused:name": "\u80af\u5fb7\u57fa (KFC)", "name": "\u5927\u5009\u9177\u773c\u93e1", "name:en": "dcool", "name:zh": "\u5927\u5009\u9177\u773c\u93e1", "opening_hours": "Mo-Su 10:00-22:00", "phone": "+886 3 315 1777", "shop": "optician", "website": "https://www.facebook.com/399cool/"}}, {"type": "node", "id": 51334261, "lat": 25.0142917, "lon": 121.3051815, "tags": {"addr:city": "\u6843\u5712\u5e02", "addr:country": "TW", "addr:district": "\u6843\u5712\u5340", "addr:full": "\u6843\u5712\u5e02\u6843\u5712\u5340\u5927\u8208\u897f\u8def\u4e00\u6bb5153\u865f", "addr:housenumber": "153", "addr:street": "\u5927\u8208\u897f\u8def\u4e00\u6bb5", "branch": "\u6843\u5712\u65d7\u8266\u5e97", "brand": "Vespa", "brand:wikidata": "Q217673", "disused:amenity": "police", "disused:name": "\u540c\u5b89\u6d3e\u51fa\u6240", "name": "Vespa", "shop": "motorcycle"}}, {"type": "node", "id": 244453297, "lat": 25.0152336, "lon": 121.3089738, "tags": {"alt_name": "\u7d71\u4e00\u8d85\u5546", "atm": "yes", "branch": "\u5927\u693f\u9580\u5e02", "brand": "7-Eleven", "brand:en": "7-Eleven", "brand:wikidata": "Q259340", "brand:wikipedia": "en:7-Eleven", "check_date": "2024-07-23", "name": "7-Eleven", "payment:ep_easycard": "yes", "payment:ep_ipass": "yes", "shop": "convenience"}}, {"type": "node", "id": 244453298, "lat": 25.0185034, "lon": 121.3106625, "tags": {"addr:city": "\u6843\u5712\u5e02", "addr:country": "TW", "addr:district": "\u6843\u5712\u5340", "addr:housenumber": "111-2", "addr:street": "\u5927\u696d\u8def\u4e8c\u6bb5", "alt_name": "\u7d71\u4e00\u8d85\u5546", "atm": "yes", "branch": "\u6607\u5b8f\u9580\u5e02", "brand": "7-Eleven", "brand:en": "7-Eleven", "brand:wikidata": "Q259340", "brand:wikipedia": "en:7-Eleven", "name": "7-Eleven", "opening_hours": "24/7", "payment:ep_easycard": "yes", "payment:ep_ipass": "yes", "shop": "convenience"}}, {"type": "node", "id": 244453299, "lat": 25.0158273, "lon": 121.3113652, "tags": {"addr:city": "\u6843\u5712\u5e02", "addr:country": "TW", "addr:district": "\u6843\u5712\u5340", "addr:housenumber": "172", "addr:street": "\u5927\u8208\u8def", "branch": "\u5927\u8208\u5e97", "name": "\u8863\u6a02\u667a\u9b54\u6cd5SPA\u6d17\u8863\u623f", "shop": "laundry"}}, {"type": "node", "id": 244453303, "lat": 25.0402832, "lon": 121.2948103, "tags": {"addr:city": "\u6843\u5712\u5e02", "addr:country": "TW", "addr:district": "\u8606\u7af9\u5340", "addr:housenumber": "1", "addr:street": "\u4e2d\u6b63\u8def", "name": "HOLA\u7279\u529b\u548c\u6a02", "shop": "houseware"}}, {"type": "node", "id": 256085405, "lat": 24.8312999, "lon": 121.24341}, {"type": "node", "id": 286746226, "lat": 24.9529852, "lon": 121.2263962, "tags": {"addr:city": "\u6843\u5712\u5e02", "addr:country": "TW", "addr:district": "\u4e2d\u58e2\u5340", "addr:housenumber": "162", "addr:street": "\u65b0\u8208\u8def", "alt_name": "\u7d71\u4e00\u8d85\u5546", "branch": "\u7ad9\u884c\u9580\u5e02", "brand": "7-Eleven", "brand:en": "7-Eleven", "brand:wikidata": "Q259340", "brand:wikipedia": "en:7-Eleven", "name": "7-Eleven", "opening_hours": "24/7", "payment:ep_easycard": "yes", "payment:ep_ipass": "yes", "shop": "convenience"}}, {"type": "node", "id": 299387228, "lat": 25.0220172, "lon": 121.3100922, "tags": {"addr:city": "\u6843\u5712\u5e02", "addr:country": "TW", "addr:district": "\u6843\u5712\u5340", "addr:housenumber": "88", "addr:street": "\u5065\u884c\u8def", "alt_name": "\u7d71\u4e00\u8d85\u5546", "atm": "yes", "branch": "\u5065\u696d\u9580\u5e02", "brand": "7-Eleven", "brand:en": "7-Eleven", "brand:wikidata": "Q259340", "brand:wikipedia": "en:7-Eleven", "check_date": "2024-12-29", "name": "7-Eleven", "opening_hours": "24/7", "payment:ep_easycard": "yes", "payment:ep_ipass": "yes", "shop": "convenience", "toilets": "yes"}}, {"type": "node", "id": 299387230, "lat": 25.0107248, "lon": 121.3107726, "tags": {"addr:city": "\u6843\u5712\u5e02", "addr:country": "TW", "addr:district": "\u6843\u5712\u5340", "addr:housenumber": "670", "addr:street": "\u6625\u65e5\u8def", "alt_name": "\u7d71\u4e00\u8d85\u5546", "atm": "yes", "branch": "\u6625\u5bf6\u9580\u5e02", "brand": "7-Eleven", "brand:en": "7-Eleven", "brand:wikidata": "Q259340", "brand:wikipedia": "en:7-Eleven", "check_date": "2024-12-28", "name": "7-Eleven", "opening_hours": "24/7", "payment:ep_easycard": "yes", "payment:ep_ipass": "yes", "shop": "convenience"}}, {"type": "node", "id": 358244616, "lat": 24.9898983, "lon": 121.3140691}, {"type": "node", "id": 358244645, "lat": 24.9930011, "lon": 121.3121242, "tags": {"name": "\u6b50\u8389\u65af\u70d8\u7119\u574a", "shop": "bakery"}}, {"type": "node", "id": 358244657, "lat": 25.0537454, "lon": 121.2884521}, {"type": "node", "id": 358244665, "lat": 25.0538841, "lon": 121.2891286}, {"type": "node", "id": 358244669, "lat": 25.0534872, "lon": 121.2892387}, {"type": "node", "id": 358244672, "lat": 25.0532732, "lon": 121.2892732}, {"type": "node", "id": 358244676, "lat": 25.0531987, "lon": 121.2892216}, {"type": "node", "id": 358244681, "lat": 25.0531511, "lon": 121.2889554}, {"type": "node", "id": 358244685, "lat": 25.0529371, "lon": 121.2878956}, {"type": "node", "id": 358244689, "lat": 25.0531148, "lon": 121.2875977}, {"type": "node", "id": 358244693, "lat": 25.0535596, "lon": 121.2875211}, {"type": "node", "id": 602226812, "lat": 24.9960419, "lon": 121.3145748, "tags": {"brand": "\u71e6\u57643C", "brand:en": "Tsannkuen 3C", "brand:wikidata": "Q11569285", "brand:wikipedia": "zh:\u71e6\u5764", "brand:zh": "\u71e6\u57643C", "check_date": "2024-12-12", "name": "\u71e6\u57643C", "name:en": "Tsannkuen 3C", "name:zh": "\u71e6\u57643C", "shop": "electronics"}}, {"type": "node", "id": 602612775, "lat": 25.0111227, "lon": 121.3125074, "tags": {"name": "Mr. Bubbles", "shop": "laundry"}}, {"type": "node", "id": 615657627, "lat": 25.0154347, "lon": 121.3110909}, {"type": "node", "id": 615657631, "lat": 25.0154412, "lon": 121.3111453}, {"type": "node", "id": 615657657, "lat": 25.0155805, "lon": 121.3110672}, {"type": "node", "id": 615657660, "lat": 25.0155883, "lon": 121.3111209}, {"type": "node", "id": 615736695, "lat": 25.0158683, "lon": 121.3061044}, {"type": "node", "id": 615736701, "lat": 25.0153206, "lon": 121.3063533}, {"type": "node", "id": 615736703, "lat": 25.0153986, "lon": 121.3068178}, {"type": "node", "id": 615736716, "lat": 25.0161599, "lon": 121.306226, "tags": {"brand": "\u5168\u5bb6\u4fbf\u5229\u5546\u5e97", "brand:en": "FamilyMart", "brand:ja": "\u30d5\u30a1\u30df\u30ea\u30fc\u30de\u30fc\u30c8", "brand:wikidata": "Q10891564", "brand:wikipedia": "zh:\u5168\u5bb6\u4fbf\u5229\u5546\u5e97", "brand:zh": "\u5168\u5bb6\u4fbf\u5229\u5546\u5e97", "name": "\u5168\u5bb6\u4fbf\u5229\u5546\u5e97", "name:en": "FamilyMart", "name:zh": "\u5168\u5bb6\u4fbf\u5229\u5546\u5e97", "opening_hours": "24/7", "payment:ep_easycard": "yes", "payment:ep_ipass": "yes", "shop": "convenience"}}, {"type": "node", "id": 615736721, "lat": 25.0160394, "lon": 121.3065367}, {"type": "node", "id": 615736724, "lat": 25.0156767, "lon": 121.3116969, "tags": {"addr:country": "TW", "addr:district": "\u6843\u5712\u5340", "addr:street": "\u5927\u8208\u8def", "name": "\u592a\u5e73\u6d0b\u6d17\u8863", "shop": "dry_cleaning"}}, {"type": "node", "id": 615736730, "lat": 25.0159325, "lon": 121.3122868, "tags": {"addr:city": "\u6843\u5712\u5e02", "addr:country": "TW", "addr:district": "\u6843\u5712\u5340", "addr:housenumber": "196", "addr:street": "\u5927\u8208\u8def", "brand": "Yamaha", "brand:wikidata": "Q158888", "name": "Yamaha", "shop": "motorcycle"}}, {"type": "node", "id": 1231897057, "lat": 25.0158412, "lon": 121.3115926, "tags": {"addr:city": "\u6843\u5712\u5e02", "addr:country": "TW", "addr:district": "\u6843\u5712\u5340", "addr:housenumber": "176", "addr:street": "\u5927\u8208\u8def", "branch": "\u5927\u8208\u5e97", "name": "\u5b8c\u7f8e\u4e3b\u7fa9\u8d8a\u5f0f\u7537\u5973\u990a\u751f\u6d17\u9aeespa\u9928", "shop": "massage"}}, {"type": "node", "id": 1232656420, "lat": 24.9873551, "lon": 121.2813955}, {"type": "node", "id": 1234029679, "lat": 24.9481757, "lon": 121.2975351}, {"type": "node", "id": 1234029721, "lat": 24.948606, "lon": 121.2978292}, {"type": "node", "id": 1234029744, "lat": 24.9484319, "lon": 121.2979938}, {"type": "node", "id": 1234029893, "lat": 24.9481311, "lon": 121.2973915}, {"type": "node", "id": 1234030084, "lat": 24.9481973, "lon": 121.2974003}, {"type": "node", "id": 1234030215, "lat": 24.9484685, "lon": 121.297798}, {"type": "node", "id": 1234030851, "lat": 24.9481101, "lon": 121.2975215}, {"type": "node", "id": 1234031281, "lat": 24.9485695, "lon": 121.298025}, {"type": "node", "id": 1256337927, "lat": 24.9624493, "lon": 121.2314055}, {"type": "node", "id": 1256337972, "lat": 24.9624271, "lon": 121.2236179}, {"type": "node", "id": 1256390608, "lat": 24.97213, "lon": 121.254022}, {"type": "node", "id": 1256390616, "lat": 24.9740877, "lon": 121.253641}, {"type": "node", "id": 1256390647, "lat": 24.9734892, "lon": 121.2525018}, {"type": "node", "id": 1256390688, "lat": 24.9718684, "lon": 121.2535076}, {"type": "node", "id": 1256390712, "lat": 24.9733068, "lon": 121.2538447}, {"type": "node", "id": 1256399253, "lat": 25.0005377, "lon": 121.2291594}, {"type": "node", "id": 1256399261, "lat": 25.0021871, "lon": 121.2281214}, {"type": "node", "id": 1256399270, "lat": 25.0022758, "lon": 121.2280946}, {"type": "node", "id": 1256399271, "lat": 25.0021985, "lon": 121.2277231}, {"type": "node", "id": 1256399272, "lat": 25.0004368, "lon": 121.2285138}, {"type": "node", "id": 1256399279, "lat": 25.0023052, "lon": 121.2288059}, {"type": "node", "id": 1256404650, "lat": 24.9624797, "lon": 121.2232876}, {"type": "node", "id": 1256404660, "lat": 24.9629559, "lon": 121.2240332}, {"type": "node", "id": 1256404662, "lat": 24.9630414, "lon": 121.2233514}, {"type": "node", "id": 1256404676, "lat": 24.9625201, "lon": 121.2239688}, {"type": "node", "id": 1256429061, "lat": 24.9461513, "lon": 121.2446375}, {"type": "node", "id": 1256429067, "lat": 24.9538165, "lon": 121.2339105}, {"type": "node", "id": 1256429073, "lat": 24.9546841, "lon": 121.2340687}, {"type": "node", "id": 1256429077, "lat": 24.9537125, "lon": 121.234994}, {"type": "node", "id": 1256429079, "lat": 24.9535835, "lon": 121.2340489}, {"type": "node", "id": 1256429080, "lat": 24.9474904, "lon": 121.2442375}, {"type": "node", "id": 1256429082, "lat": 24.9470876, "lon": 121.245249}, {"type": "node", "id": 1256429088, "lat": 24.9544188, "lon": 121.2351363}, {"type": "node", "id": 1256429091, "lat": 24.9547845, "lon": 121.2341913}, {"type": "node", "id": 1256429092, "lat": 24.9461877, "lon": 121.2439937}, {"type": "node", "id": 1256429101, "lat": 24.947238, "lon": 121.2441571}, {"type": "node", "id": 1256649784, "lat": 24.9809683, "lon": 121.2490673, "tags": {"addr:city": "\u6843\u5712\u5e02", "addr:country": "TW", "addr:district": "\u4e2d\u58e2\u5340", "addr:housenumber": "71", "addr:street": "\u5409\u6797\u8def", "branch": "\u4e2d\u58e2\u6843\u6770\u5e97", "brand": "\u840a\u723e\u5bcc", "brand:en": "Hi-Life", "brand:wikidata": "Q11326216", "brand:wikipedia": "zh:\u840a\u723e\u5bcc", "brand:zh": "\u840a\u723e\u5bcc", "name": "\u840a\u723e\u5bcc", "name:en": "Hi-Life", "name:zh": "\u840a\u723e\u5bcc", "opening_hours": "24/7", "payment:ep_easycard": "yes", "payment:ep_ipass": "yes", "shop": "convenience"}}, {"type": "node", "id": 1256649785, "lat": 24.9743252, "lon": 121.2482734, "tags": {"addr:city": "\u6843\u5712\u5e02", "addr:country": "TW", "addr:district": "\u4e2d\u58e2\u5340", "addr:housenumber": "53", "addr:street": "\u81ea\u5f37\u516d\u8def", "alt_name": "\u7d71\u4e00\u8d85\u5546", "branch": "\u5fa9\u5f37\u9580\u5e02", "brand": "7-Eleven", "brand:en": "7-Eleven", "brand:wikidata": "Q259340", "brand:wikipedia": "en:7-Eleven", "name": "7-Eleven", "payment:ep_easycard": "yes", "payment:ep_ipass": "yes", "shop": "convenience"}}, {"type": "node", "id": 1256649788, "lat": 24.9691563, "lon": 121.2495008, "tags": {"addr:city": "\u6843\u5712\u5e02", "addr:country": "TW", "addr:district": "\u4e2d\u58e2\u5340", "addr:housenumber": "670", "addr:street": "\u4e2d\u83ef\u8def\u4e00\u6bb5", "alt_name": "\u7d71\u4e00\u8d85\u5546", "branch": "\u5fa9\u83ef\u9580\u5e02", "brand": "7-Eleven", "brand:en": "7-Eleven", "brand:wikidata": "Q259340", "brand:wikipedia": "en:7-Eleven", "name": "7-Eleven", "opening_hours": "24/7", "payment:ep_easycard": "yes", "payment:ep_ipass": "yes", "shop": "convenience"}}, {"type": "node", "id": 1256649789, "lat": 24.9723618, "lon": 121.2477743, "tags": {"addr:city": "\u6843\u5712\u5e02", "addr:country": "TW", "addr:district": "\u4e2d\u58e2\u5340", "addr:housenumber": "88", "addr:street": "\u81ea\u5f37\u56db\u8def", "branch": "\u4e2d\u58e2\u5fa9\u83ef\u5e97", "brand": "\u5168\u5bb6\u4fbf\u5229\u5546\u5e97", "brand:en": "FamilyMart", "brand:ja": "\u30d5\u30a1\u30df\u30ea\u30fc\u30de\u30fc\u30c8", "brand:wikidata": "Q10891564", "brand:wikipedia": "zh:\u5168\u5bb6\u4fbf\u5229\u5546\u5e97", "brand:zh": "\u5168\u5bb6\u4fbf\u5229\u5546\u5e97", "int_name": "Family Mart", "name": "\u5168\u5bb6\u4fbf\u5229\u5546\u5e97", "name:en": "FamilyMart", "name:zh": "\u5168\u5bb6\u4fbf\u5229\u5546\u5e97", "opening_hours": "24/7", "payment:ep_easycard": "yes", "payment:ep_ipass": "yes", "shop": "convenience"}}, {"type": "node", "id": 1256649810, "lat": 24.9780147, "lon": 121.2480693, "tags": {"brand": "\u5168\u806f\u798f\u5229\u4e2d\u5fc3", "brand:en": "Pxmart", "brand:nan": "Cho\u00e2n-li\u00e2n Hok-l\u012b Tiong-sim", "brand:nan-Hant": "\u5168\u806f\u798f\u5229\u4e2d\u5fc3", "brand:nan-Latn-pehoeji": "Cho\u00e2n-li\u00e2n Hok-l\u012b Tiong-sim", "brand:nan-Latn-tailo": "Tsu\u00e2n-li\u00e2n Hok-l\u012b Tiong-sim", "brand:wikidata": "Q7262792", "brand:wikipedia": "en:PX Mart", "brand:zh": "\u5168\u806f\u798f\u5229\u4e2d\u5fc3", "name": "\u5168\u806f\u798f\u5229\u4e2d\u5fc3", "name:en": "Pxmart", "name:nan": "Cho\u00e2n-li\u00e2n Hok-l\u012b Tiong-sim", "name:nan-Hant": "\u5168\u806f\u798f\u5229\u4e2d\u5fc3", "name:nan-Latn-pehoeji": "Cho\u00e2n-li\u00e2n Hok-l\u012b Tiong-sim", "name:nan-Latn-tailo": "Tsu\u00e2n-li\u00e2n Hok-l\u012b Tiong-sim", "name:zh": "\u5168\u806f\u798f\u5229\u4e2d\u5fc3", "shop": "supermarket", "short_name": "\u5168\u806f", "short_name:nan": "Cho\u00e2n-li\u00e2n", "short_name:nan-Hant": "\u5168\u806f", "short_name:nan-Latn-pehoeji": "Cho\u00e2n-li\u00e2n", "short_name:nan-Latn-tailo": "Tsu\u00e2n-li\u00e2n", "short_name:zh": "\u5168\u806f"}}, {"type": "node", "id": 1256649812, "lat": 24.9787886, "lon": 121.2499214, "tags": {"addr:city": "\u6843\u5712\u5e02", "addr:country": "TW", "addr:district": "\u4e2d\u58e2\u5340", "addr:housenumber": "23", "addr:street": "\u9577\u6625\u8def", "alt_name": "\u7d71\u4e00\u8d85\u5546", "branch": "\u9577\u696d\u9580\u5e02", "brand": "7-Eleven", "brand:en": "7-Eleven", "brand:wikidata": "Q259340", "brand:wikipedia": "en:7-Eleven", "name": "7-Eleven", "opening_hours": "24/7", "payment:ep_easycard": "yes", "payment:ep_ipass": "yes", "shop": "convenience"}}, {"type": "node", "id": 1256653153, "lat": 24.957138, "lon": 121.2234379, "tags": {"addr:city": "\u6843\u5712\u5e02", "addr:country": "TW", "addr:district": "\u4e2d\u58e2\u5340", "addr:floor": "1", "addr:full": "32042\u6843\u5712\u5e02\u4e2d\u58e2\u5340\u4e2d\u592e\u897f\u8def\u4e00\u6bb51\u865f1\u6a13", "addr:housenumber": "1", "addr:postcode": "320002", "addr:street": "\u4e2d\u592e\u897f\u8def\u4e00\u6bb5", "alt_name": "\u7d71\u4e00\u8d85\u5546", "atm": "yes", "branch": "\u52dd\u58e2\u9580\u5e02", "brand": "7-Eleven", "brand:en": "7-Eleven", "brand:wikidata": "Q259340", "brand:wikipedia": "en:7-Eleven", "internet_access": "wlan", "name": "7-Eleven", "opening_hours": "24/7", "operator": "\u7d71\u4e00\u8d85\u5546\u80a1\u4efd\u6709\u9650\u516c\u53f8", "payment:ep_easycard": "yes", "payment:ep_ipass": "yes", "phone": "+886-3-425-1981", "ref": "135713", "shop": "convenience", "toilets": "no", "website": "https://www.7-11.com.tw/", "wheelchair": "no"}}, {"type": "node", "id": 1256653155, "lat": 24.9784694, "lon": 121.2545978, "tags": {"addr:city": "\u6843\u5712\u5e02", "addr:country": "TW", "addr:district": "\u4e2d\u58e2\u5340", "addr:housenumber": "248", "addr:street": "\u5fe0\u5b5d\u8def", "alt_name": "\u7d71\u4e00\u8d85\u5546", "branch": "\u4e2d\u5b5d\u9580\u5e02", "brand": "7-Eleven", "brand:en": "7-Eleven", "brand:wikidata": "Q259340", "brand:wikipedia": "en:7-Eleven", "name": "7-Eleven", "opening_hours": "24/7", "payment:ep_easycard": "yes", "payment:ep_ipass": "yes", "shop": "convenience"}}, {"type": "node", "id": 1256653158, "lat": 24.9767578, "lon": 121.2511432, "tags": {"addr:city": "\u6843\u5712\u5e02", "addr:country": "TW", "addr:district": "\u4e2d\u58e2\u5340", "addr:housenumber": "252", "addr:street": "\u6587\u5316\u4e8c\u8def", "branch": "\u4e2d\u58e2\u5143\u751f\u5e97", "brand": "\u5168\u5bb6\u4fbf\u5229\u5546\u5e97", "brand:en": "FamilyMart", "brand:ja": "\u30d5\u30a1\u30df\u30ea\u30fc\u30de\u30fc\u30c8", "brand:wikidata": "Q10891564", "brand:wikipedia": "zh:\u5168\u5bb6\u4fbf\u5229\u5546\u5e97", "brand:zh": "\u5168\u5bb6\u4fbf\u5229\u5546\u5e97", "name": "\u5168\u5bb6\u4fbf\u5229\u5546\u5e97", "name:en": "FamilyMart", "name:zh": "\u5168\u5bb6\u4fbf\u5229\u5546\u5e97", "opening_hours": "24/7", "payment:ep_easycard": "yes", "payment:ep_ipass": "yes", "shop": "convenience"}}, {"type": "node", "id": 1256653166, "lat": 24.9592215, "lon": 121.2147939, "tags": {"addr:city": "\u6843\u5712\u5e02", "addr:country": "TW", "addr:district": "\u4e2d\u58e2\u5340", "addr:full": "32046\u6843\u5712\u5e02\u4e2d\u58e2\u5340\u4e2d\u592e\u897f\u8def\u4e8c\u6bb5125\u865f", "addr:housenumber": "125", "addr:postcode": "32046", "addr:street": "\u4e2d\u592e\u897f\u8def\u4e8c\u6bb5", "alt_name": "\u7d71\u4e00\u8d85\u5546", "atm": "yes", "branch": "\u591c\u5e02\u9580\u5e02", "brand": "7-Eleven", "brand:en": "7-Eleven", "brand:wikidata": "Q259340", "brand:wikipedia": "en:7-Eleven", "internet_access": "wlan", "name": "7-Eleven", "opening_hours": "24/7", "operator": "\u7d71\u4e00\u8d85\u5546\u80a1\u4efd\u6709\u9650\u516c\u53f8", "payment:ep_easycard": "yes", "payment:ep_ipass": "yes", "phone": "+886 3 402 4619", "ref": "934695", "shop": "convenience", "toilets": "no", "website": "https://www.7-11.com.tw/"}}, {"type": "node", "id": 1256653169, "lat": 24.979938, "lon": 121.2539005, "tags": {"brand": "\u840a\u723e\u5bcc", "brand:en": "Hi-Life", "brand:wikidata": "Q11326216", "brand:wikipedia": "zh:\u840a\u723e\u5bcc", "brand:zh": "\u840a\u723e\u5bcc", "name": "\u840a\u723e\u5bcc", "name:en": "Hi-Life", "name:zh": "\u840a\u723e\u5bcc", "payment:ep_easycard": "yes", "payment:ep_ipass": "yes", "shop": "convenience"}}, {"type": "node", "id": 1256656392, "lat": 24.9764884, "lon": 121.2445272, "tags": {"branch": "\u4e2d\u58e2\u5de5\u696d\u5e97", "brand": "\u840a\u723e\u5bcc", "brand:en": "Hi-Life", "brand:wikidata": "Q11326216", "brand:wikipedia": "zh:\u840a\u723e\u5bcc", "brand:zh": "\u840a\u723e\u5bcc", "name": "\u840a\u723e\u5bcc", "name:en": "Hi-Life", "name:zh": "\u840a\u723e\u5bcc", "opening_hours": "24/7", "payment:ep_easycard": "yes", "payment:ep_ipass": "yes", "shop": "convenience"}}, {"type": "node", "id": 1256672949, "lat": 24.9752148, "lon": 121.2556745, "tags": {"name": "\u91d1\u6e3c\u661f", "shop": "bakery"}}, {"type": "node", "id": 1256672953, "lat": 24.9737137, "lon": 121.2564218, "tags": {"addr:city": "\u6843\u5712\u5e02", "addr:country": "TW", "addr:district": "\u4e2d\u58e2\u5340", "addr:housenumber": "76", "addr:street": "\u4fe1\u7fa9\u8def", "branch": "\u4e2d\u58e2\u5fe0\u5b5d\u5e97", "brand": "\u5168\u5bb6\u4fbf\u5229\u5546\u5e97", "brand:en": "FamilyMart", "brand:ja": "\u30d5\u30a1\u30df\u30ea\u30fc\u30de\u30fc\u30c8", "brand:wikidata": "Q10891564", "brand:wikipedia": "zh:\u5168\u5bb6\u4fbf\u5229\u5546\u5e97", "brand:zh": "\u5168\u5bb6\u4fbf\u5229\u5546\u5e97", "name": "\u5168\u5bb6\u4fbf\u5229\u5546\u5e97", "name:en": "FamilyMart", "name:zh": "\u5168\u5bb6\u4fbf\u5229\u5546\u5e97", "opening_hours": "24/7", "payment:ep_easycard": "yes", "payment:ep_ipass": "yes", "shop": "convenience"}}, {"type": "node", "id": 1256672954, "lat": 24.9751336, "lon": 121.2554347, "tags": {"addr:city": "\u6843\u5712\u5e02", "addr:country": "TW", "addr:district": "\u4e2d\u58e2\u5340", "addr:housenumber": "109", "addr:postcode": "320", "addr:street": "\u5fe0\u5b5d\u8def", "branch": "\u4e2d\u58e2\u6b63\u795e\u5e97", "brand": "\u840a\u723e\u5bcc", "brand:en": "Hi-Life", "brand:wikidata": "Q11326216", "brand:wikipedia": "zh:\u840a\u723e\u5bcc", "brand:zh": "\u840a\u723e\u5bcc", "name": "\u840a\u723e\u5bcc", "name:en": "Hi-Life", "name:zh": "\u840a\u723e\u5bcc", "opening_hours": "24/7", "payment:cash": "yes", "payment:coins": "yes", "payment:ep_easycard": "yes", "payment:ep_ipass": "yes", "phone": "+886 3 286 0105", "shop": "convenience"}}, {"type": "node", "id": 1256674865, "lat": 24.9795879, "lon": 121.2539434, "tags": {"disused:amenity": "restaurant", "disused:name": "\u5b6b\u6771\u5bf6\u725b\u6392", "name": "Pioneer", "name:en": "Pioneet", "name:zh": "Pioneer", "shop": "electronics"}}, {"type": "node", "id": 1256688203, "lat": 24.9747835, "lon": 121.255896, "tags": {"name": "\u5167\u58e2\u6587\u5316\u5716\u66f8\u57ce", "shop": "books"}}, {"type": "node", "id": 1256688205, "lat": 24.9560594, "lon": 121.2248493, "tags": {"addr:city": "\u6843\u5712\u5e02", "addr:country": "TW", "addr:district": "\u4e2d\u58e2\u5340", "addr:floor": "-1", "addr:full": "32041\u6843\u5712\u5e02\u4e2d\u58e2\u5340\u4e2d\u5c71\u8def132\u865fB1", "addr:housenumber": "132", "addr:postcode": "32041", "addr:street": "\u4e2d\u5c71\u8def", "branch": "\u4e2d\u58e2\u5e97", "brand": "\u91d1\u77f3\u5802\u66f8\u5e97", "brand:en": "Kingstone Bookstore", "brand:wikidata": "Q15911680", "brand:zh": "\u91d1\u77f3\u5802\u66f8\u5e97", "name": "\u91d1\u77f3\u5802\u66f8\u5e97", "name:en": "Kingstone Bookstore", "name:zh": "\u91d1\u77f3\u5802\u66f8\u5e97", "opening_hours": "Mo-Su 11:00-22:00", "operator": "\u91d1\u77f3\u5802\u5716\u66f8\u80a1\u4efd\u6709\u9650\u516c\u53f8", "phone": "+886-3-422-8644", "shop": "books", "website": "https://www.kingstone.com.tw/", "wheelchair": "no"}}, {"type": "node", "id": 1256688211, "lat": 24.977351, "lon": 121.2505316, "tags": {"addr:city": "\u6843\u5712\u5e02", "addr:country": "TW", "addr:district": "\u4e2d\u58e2\u5340", "addr:housenumber": "257", "addr:street": "\u6587\u5316\u4e8c\u8def", "branch": "\u6c85\u965e\u9580\u5e02", "brand": "7-Eleven", "brand:wikidata": "Q259340", "cuisine": "coffee_shop", "disused:name": "\u62ce\u676f\u5496\u5561", "name": "7-Eleven", "opening_hours": "24/7", "shop": "convenience"}}, {"type": "node", "id": 1256688212, "lat": 24.9786348, "lon": 121.2510788, "tags": {"name": "\u6771\u83ef\u66f8\u5c40", "shop": "books"}}, {"type": "node", "id": 1256688215, "lat": 24.9749391, "lon": 121.2579667, "tags": {"addr:city": "\u6843\u5712\u5e02", "addr:country": "TW", "addr:district": "\u4e2d\u58e2\u5340", "addr:housenumber": "79", "addr:street": "\u798f\u5fb7\u8def", "alt_name": "\u7d71\u4e00\u8d85\u5546", "branch": "\u798f\u795e\u9580\u5e02", "brand": "7-Eleven", "brand:en": "7-Eleven", "brand:wikidata": "Q259340", "brand:wikipedia": "en:7-Eleven", "name": "7-Eleven", "opening_hours": "24/7", "payment:ep_easycard": "yes", "payment:ep_ipass": "yes", "shop": "convenience"}}, {"type": "node", "id": 1259821119, "lat": 24.9797769, "lon": 121.2478868, "tags": {"addr:city": "\u6843\u5712\u5e02", "addr:country": "TW", "addr:district": "\u4e2d\u58e2\u5340", "addr:housenumber": "68\u4e4b1", "addr:street": "\u5409\u6797\u8def", "branch": "\u4e2d\u58e2\u5409\u5712\u5e97", "brand": "\u5168\u5bb6\u4fbf\u5229\u5546\u5e97", "brand:en": "FamilyMart", "brand:ja": "\u30d5\u30a1\u30df\u30ea\u30fc\u30de\u30fc\u30c8", "brand:wikidata": "Q10891564", "brand:wikipedia": "zh:\u5168\u5bb6\u4fbf\u5229\u5546\u5e97", "brand:zh": "\u5168\u5bb6\u4fbf\u5229\u5546\u5e97", "name": "\u5168\u5bb6\u4fbf\u5229\u5546\u5e97", "name:en": "FamilyMart", "name:zh": "\u5168\u5bb6\u4fbf\u5229\u5546\u5e97", "opening_hours": "24/7", "payment:ep_easycard": "yes", "payment:ep_ipass": "yes", "shop": "convenience"}}, {"type": "node", "id": 1260942587, "lat": 24.9613691, "lon": 121.2238083, "tags": {"addr:city": "\u6843\u5712\u5e02", "addr:country": "TW", "addr:district": "\u4e2d\u58e2\u5340", "addr:full": "32085\u6843\u5712\u5e02\u4e2d\u58e2\u5340\u4e5d\u548c\u4e00\u885720-1\u865f", "addr:housenumber": "20-1", "addr:postcode": "320045", "addr:street": "\u4e5d\u548c\u4e00\u8857", "alt_name": "\u7d71\u4e00\u8d85\u5546", "atm": "yes", "branch": "\u5f71\u83ef\u9580\u5e02", "brand": "7-Eleven", "brand:en": "7-Eleven", "brand:wikidata": "Q259340", "brand:wikipedia": "en:7-Eleven", "internet_access": "wlan", "name": "7-Eleven", "opening_hours": "24/7", "operator": "\u7d71\u4e00\u8d85\u5546\u80a1\u4efd\u6709\u9650\u516c\u53f8", "payment:ep_easycard": "yes", "payment:ep_ipass": "yes", "phone": "+886-3-427-5504", "ref": "935643", "shop": "convenience", "toilets": "no", "website": "https://www.7-11.com.tw/"}}, {"type": "node", "id": 1260942589, "lat": 24.9542475, "lon": 121.2257471, "tags": {"addr:city": "\u6843\u5712\u5e02", "addr:country": "TW", "addr:district": "\u4e2d\u58e2\u5340", "addr:housenumber": "1", "addr:postcode": "320001", "addr:street": "\u4e2d\u5e73\u8def", "branch": "\u4e2d\u58e2\u7ad9\u524d\u5e97", "brand": "\u5168\u5bb6\u4fbf\u5229\u5546\u5e97", "brand:en": "FamilyMart", "brand:ja": "\u30d5\u30a1\u30df\u30ea\u30fc\u30de\u30fc\u30c8", "brand:wikidata": "Q10891564", "brand:wikipedia": "zh:\u5168\u5bb6\u4fbf\u5229\u5546\u5e97", "brand:zh": "\u5168\u5bb6\u4fbf\u5229\u5546\u5e97", "name": "\u5168\u5bb6\u4fbf\u5229\u5546\u5e97", "name:en": "FamilyMart", "name:zh": "\u5168\u5bb6\u4fbf\u5229\u5546\u5e97", "opening_hours": "24/7", "payment:ep_easycard": "yes", "payment:ep_ipass": "yes", "phone": "+886 3 426 5615", "shop": "convenience", "wheelchair": "limited"}}, {"type": "node", "id": 1260944201, "lat": 24.9784869, "lon": 121.2511775, "tags": {"addr:city": "\u6843\u5712\u5e02", "addr:country": "TW", "addr:district": "\u4e2d\u58e2\u5340", "addr:housenumber": "336", "addr:street": "\u6587\u5316\u8def", "branch": "\u4e2d\u58e2\u6587\u5316\u5e97", "brand": "OK\u8d85\u5546", "brand:en": "OK mart", "brand:wikidata": "Q10851968", "brand:wikipedia": "zh:OK\u8d85\u5546", "name": "OK\u8d85\u5546", "name:en": "OK mart", "name:zh": "OK", "opening_hours": "24/7", "shop": "convenience"}}, {"type": "node", "id": 1260944202, "lat": 24.9638494, "lon": 121.2241087, "tags": {"addr:city": "\u6843\u5712\u5e02", "addr:country": "TW", "addr:district": "\u4e2d\u58e2\u5340", "addr:full": "32085\u6843\u5712\u5e02\u4e2d\u58e2\u5340\u516d\u548c\u8def66\u300168\u865f", "addr:housenumber": "66;68", "addr:postcode": "32085", "addr:street": "\u516d\u548c\u8def", "alt_name": "\u7d71\u4e00\u8d85\u5546", "atm": "yes", "branch": "\u6d77\u548c\u9580\u5e02", "brand": "7-Eleven", "brand:en": "7-Eleven", "brand:wikidata": "Q259340", "brand:wikipedia": "en:7-Eleven", "internet_access": "wlan", "name": "7-Eleven", "name:ja": "\u30bb\u30d6\u30f3-\u30a4\u30ec\u30d6\u30f3", "opening_hours": "24/7", "operator": "\u7d71\u4e00\u8d85\u5546\u80a1\u4efd\u6709\u9650\u516c\u53f8", "payment:ep_easycard": "yes", "payment:ep_ipass": "yes", "phone": "+886-3-426-5714", "ref": "958015", "shop": "convenience", "toilets": "no", "website": "https://www.7-11.com.tw/"}}, {"type": "node", "id": 1260944209, "lat": 24.969797, "lon": 121.247799, "tags": {"addr:city": "\u6843\u5712\u5e02", "addr:country": "TW", "addr:district": "\u4e2d\u58e2\u5340", "addr:housenumber": "50", "addr:street": "\u5fa9\u83ef\u8857", "branch": "\u4e2d\u58e2\u5fa9\u83ef\u5e97", "brand": "OK\u8d85\u5546", "brand:en": "OK mart", "brand:wikidata": "Q10851968", "brand:wikipedia": "zh:OK\u8d85\u5546", "name": "OK\u8d85\u5546", "name:en": "OK mart", "name:zh": "OK\u4fbf\u5229\u5546\u5e97", "opening_hours": "Mo-Su 06:00-24:00", "shop": "convenience"}}, {"type": "node", "id": 1260944219, "lat": 24.9803541, "lon": 121.2570784, "tags": {"addr:city": "\u6843\u5712\u5e02", "addr:country": "TW", "addr:district": "\u4e2d\u58e2\u5340", "addr:housenumber": "192", "addr:street": "\u6210\u7ae0\u4e8c\u8857", "alt_name": "\u7d71\u4e00\u8d85\u5546", "branch": "\u6210\u7ae0\u9580\u5e02", "brand": "7-Eleven", "brand:en": "7-Eleven", "brand:wikidata": "Q259340", "brand:wikipedia": "en:7-Eleven", "name": "7-Eleven", "name:zh": "7-11", "opening_hours": "24/7", "shop": "convenience"}}, {"type": "node", "id": 1260947927, "lat": 24.9761731, "lon": 121.2563477, "tags": {"brand": "\u5168\u5bb6\u4fbf\u5229\u5546\u5e97", "brand:en": "FamilyMart", "brand:ja": "\u30d5\u30a1\u30df\u30ea\u30fc\u30de\u30fc\u30c8", "brand:wikidata": "Q10891564", "brand:wikipedia": "zh:\u5168\u5bb6\u4fbf\u5229\u5546\u5e97", "brand:zh": "\u5168\u5bb6\u4fbf\u5229\u5546\u5e97", "name": "\u5168\u5bb6\u4fbf\u5229\u5546\u5e97", "name:en": "FamilyMart", "name:zh": "\u5168\u5bb6\u4fbf\u5229\u5546\u5e97", "payment:ep_easycard": "yes", "payment:ep_ipass": "yes", "shop": "convenience"}}, {"type": "node", "id": 1260947928, "lat": 24.9730597, "lon": 121.258806, "tags": {"brand": "\u5168\u5bb6\u4fbf\u5229\u5546\u5e97", "brand:en": "FamilyMart", "brand:ja": "\u30d5\u30a1\u30df\u30ea\u30fc\u30de\u30fc\u30c8", "brand:wikidata": "Q10891564", "brand:wikipedia": "zh:\u5168\u5bb6\u4fbf\u5229\u5546\u5e97", "brand:zh": "\u5168\u5bb6\u4fbf\u5229\u5546\u5e97", "name": "\u5168\u5bb6\u4fbf\u5229\u5546\u5e97", "name:en": "FamilyMart", "name:zh": "\u5168\u5bb6\u4fbf\u5229\u5546\u5e97", "payment:ep_easycard": "yes", "payment:ep_ipass": "yes", "shop": "convenience"}}, {"type": "node", "id": 1260947930, "lat": 24.9832327, "lon": 121.2476799, "tags": {"addr:city": "\u6843\u5712\u5e02", "addr:country": "TW", "addr:district": "\u4e2d\u58e2\u5340", "addr:housenumber": "30", "addr:street": "\u5409\u6797\u4e8c\u8def83\u5df7", "alt_name": "\u7d71\u4e00\u8d85\u5546", "branch": "\u5409\u5229\u9580\u5e02", "brand": "7-Eleven", "brand:en": "7-Eleven", "brand:wikidata": "Q259340", "brand:wikipedia": "en:7-Eleven", "name": "7-Eleven", "name:ja": "\u30bb\u30d6\u30f3-\u30a4\u30ec\u30d6\u30f3", "opening_hours": "24/7", "payment:ep_easycard": "yes", "payment:ep_ipass": "yes", "shop": "convenience"}}, {"type": "node", "id": 1260947933, "lat": 24.9771545, "lon": 121.2592349, "tags": {"addr:city": "\u6843\u5712\u5e02", "addr:country": "TW", "addr:district": "\u4e2d\u58e2\u5340", "addr:housenumber": "10", "addr:street": "\u6210\u7ae0\u4e00\u8857", "alt_name": "\u7d71\u4e00\u8d85\u5546", "branch": "\u6b63\u795e\u9580\u5e02", "brand": "7-Eleven", "brand:en": "7-Eleven", "brand:wikidata": "Q259340", "brand:wikipedia": "en:7-Eleven", "name": "7-Eleven", "opening_hours": "24/7", "payment:ep_easycard": "yes", "payment:ep_ipass": "yes", "shop": "convenience"}}, {"type": "node", "id": 1260960322, "lat": 24.9786425, "lon": 121.2487743, "tags": {"shop": "bicycle"}}, {"type": "node", "id": 1260960324, "lat": 24.9794497, "lon": 121.2539778, "tags": {"shop": "florist"}}, {"type": "node", "id": 1260972192, "lat": 24.9621847, "lon": 121.2315066}, {"type": "node", "id": 1260972199, "lat": 24.9619417, "lon": 121.2322581}, {"type": "node", "id": 1260972202, "lat": 24.9619809, "lon": 121.2324665}, {"type": "node", "id": 1260972222, "lat": 24.9624934, "lon": 121.2327959}, {"type": "node", "id": 1260972232, "lat": 24.9621363, "lon": 121.2315331}, {"type": "node", "id": 1260972250, "lat": 24.9628514, "lon": 121.2326581}, {"type": "node", "id": 1260990703, "lat": 25.0131775, "lon": 121.2152141, "tags": {"alt_name": "\u7d71\u4e00\u8d85\u5546", "brand": "7-Eleven", "brand:en": "7-Eleven", "brand:wikidata": "Q259340", "brand:wikipedia": "en:7-Eleven", "name": "7-Eleven", "name:ja": "\u30bb\u30d6\u30f3-\u30a4\u30ec\u30d6\u30f3", "opening_hours": "Mo-Su 06:30-23:00", "payment:ep_easycard": "yes", "payment:ep_ipass": "yes", "shop": "convenience", "toilets:wheelchair": "no", "wheelchair": "yes"}}, {"type": "node", "id": 1260992685, "lat": 25.0039711, "lon": 121.2140748, "tags": {"addr:city": "\u6843\u5712\u5e02", "addr:country": "TW", "addr:district": "\u4e2d\u58e2\u5340", "addr:full": "320\u6843\u5712\u5e02\u4e2d\u58e2\u5340\u9752\u57d4\u91cc\u9818\u822a\u5357\u8def\u4e8c\u6bb5208\u865f", "addr:housenumber": "208", "addr:place": "\u9752\u57d4\u91cc", "addr:postcode": "320", "addr:street": "\u9818\u822a\u5357\u8def\u4e8c\u6bb5", "alt_name": "\u7d71\u4e00\u8d85\u5546", "atm": "yes", "branch": "\u9ad8\u6b23\u9580\u5e02", "brand": "7-Eleven", "brand:en": "7-Eleven", "brand:wikidata": "Q259340", "brand:wikipedia": "en:7-Eleven", "facebook": "https://www.facebook.com/7-11\u9ad8\u6b23\u9580\u5e02-451977171841196/", "fax": "+886-3-4533834", "name": "7-Eleven", "opening_hours": "24/7", "operator": "\u7d71\u4e00\u8d85\u5546\u80a1\u4efd\u6709\u9650\u516c\u53f8", "payment:ep_easycard": "yes", "payment:ep_ipass": "yes", "phone": "+886-3-4533973", "ref": "967271", "shop": "convenience", "toilets": "yes", "website": "https://www.7-11.com.tw/"}}, {"type": "node", "id": 1260992687, "lat": 25.0044467, "lon": 121.2284795}, {"type": "node", "id": 1260992689, "lat": 25.0274337, "lon": 121.2302013, "tags": {"addr:city": "\u6843\u5712\u5e02", "addr:country": "TW", "addr:district": "\u5927\u5712\u5340", "addr:housenumber": "428", "addr:street": "\u4e2d\u6b63\u6771\u8def\u4e8c\u6bb5", "alt_name": "\u7d71\u4e00\u8d85\u5546", "branch": "\u9435\u93ae\u9580\u5e02", "branch:en": "Tiezhen Store", "brand": "7-Eleven", "brand:en": "7-Eleven", "brand:wikidata": "Q259340", "brand:wikipedia": "en:7-Eleven", "name": "7-Eleven", "name:en": "7-Eleven", "name:zh": "7-Eleven", "opening_hours": "24/7", "payment:ep_easycard": "yes", "payment:ep_ipass": "yes", "phone": "+886-3-3816914", "shop": "convenience"}}, {"type": "node", "id": 1263463607, "lat": 24.9757161, "lon": 121.2552143, "tags": {"name": "\u4f73\u4f73\u6d41\u884c\u5ee3\u5834", "shop": "clothes"}}, {"type": "node", "id": 1263482792, "lat": 24.9581797, "lon": 121.2447966, "tags": {"addr:city": "\u6843\u5712\u5e02", "addr:country": "TW", "addr:district": "\u4e2d\u58e2\u5340", "addr:housenumber": "465", "addr:street": "\u65b0\u4e2d\u5317\u8def", "alt_name": "\u7d71\u4e00\u8d85\u5546", "branch": "\u7d71\u4e0a\u9580\u5e02", "brand": "7-Eleven", "brand:en": "7-Eleven", "brand:wikidata": "Q259340", "brand:wikipedia": "en:7-Eleven", "name": "7-Eleven", "opening_hours": "24/7", "payment:ep_easycard": "yes", "payment:ep_ipass": "yes", "shop": "convenience"}}, {"type": "node", "id": 1265111616, "lat": 24.9557688, "lon": 121.2212184}, {"type": "node", "id": 1265111619, "lat": 24.9557959, "lon": 121.2211715}, {"type": "node", "id": 1265111628, "lat": 24.956021, "lon": 121.2214843}, {"type": "node", "id": 1265111629, "lat": 24.9556337, "lon": 121.2212936}, {"type": "node", "id": 1265312567, "lat": 25.0021517, "lon": 121.2283394, "tags": {"addr:city": "\u6843\u5712\u5e02", "addr:country": "TW", "addr:district": "\u4e2d\u58e2\u5340", "addr:housenumber": "501", "addr:postcode": "320", "addr:street": "\u4e2d\u5712\u8def\u4e8c\u6bb5", "brand": "\u8aa0\u54c1\u66f8\u5e97", "brand:en": "Eslite Bookstore", "brand:wikidata": "Q391988", "brand:zh": "\u8aa0\u54c1\u66f8\u5e97", "name": "\u8aa0\u54c1\u66f8\u5e97", "name:en": "Eslite Bookstore", "name:zh": "\u8aa0\u54c1\u66f8\u5e97", "shop": "books"}}, {"type": "node", "id": 1265318221, "lat": 25.0006956, "lon": 121.229893, "tags": {"addr:city": "\u6843\u5712\u5e02", "addr:country": "TW", "addr:district": "\u4e2d\u58e2\u5340", "addr:housenumber": "544", "addr:street": "\u4e2d\u5712\u8def\u4e8c\u6bb5", "branch": "\u4e2d\u58e2\u6843\u6c5f\u5e97", "brand": "\u840a\u723e\u5bcc", "brand:en": "Hi-Life", "brand:wikidata": "Q11326216", "brand:wikipedia": "zh:\u840a\u723e\u5bcc", "name": "\u840a\u723e\u5bcc", "name:en": "Hi-Life", "name:ja": "\u30cf\u30a4\u30e9\u30a4\u30d5", "name:zh": "\u840a\u723e\u5bcc", "opening_hours": "7/24", "shop": "convenience"}}, {"type": "node", "id": 1275925925, "lat": 24.9605573, "lon": 121.2275942, "tags": {"addr:city": "\u6843\u5712\u5e02", "addr:country": "TW", "addr:district": "\u4e2d\u58e2\u5340", "addr:housenumber": "3", "addr:postcode": "320003", "addr:street": "\u5143\u5316\u8def197\u5df7", "alt_name": "\u7d71\u4e00\u8d85\u5546", "branch": "\u6210\u8c50\u9580\u5e02", "brand": "7-Eleven", "brand:en": "7-Eleven", "brand:wikidata": "Q259340", "brand:wikipedia": "en:7-Eleven", "name": "7-Eleven", "opening_hours": "24/7", "payment:ep_easycard": "yes", "payment:ep_ipass": "yes", "shop": "convenience"}}, {"type": "node", "id": 1289001849, "lat": 24.9581405, "lon": 121.2179295, "tags": {"name": "\u842c\u5229\u82b1\u5e02", "shop": "florist"}}, {"type": "node", "id": 1290250651, "lat": 24.9355384, "lon": 121.2337372, "tags": {"addr:city": "\u6843\u5712\u5e02", "addr:country": "TW", "addr:district": "\u4e2d\u58e2\u5340", "addr:housenumber": "184", "addr:street": "\u9f8d\u5ca1\u8def\u4e09\u6bb5", "branch": "\u4e2d\u58e2\u91d1\u9f8d\u5e97", "brand": "\u5168\u5bb6\u4fbf\u5229\u5546\u5e97", "brand:en": "FamilyMart", "brand:ja": "\u30d5\u30a1\u30df\u30ea\u30fc\u30de\u30fc\u30c8", "brand:wikidata": "Q10891564", "brand:zh": "\u5168\u5bb6\u4fbf\u5229\u5546\u5e97", "name": "\u5168\u5bb6\u4fbf\u5229\u5546\u5e97", "name:en": "FamilyMart", "name:zh": "\u5168\u5bb6\u4fbf\u5229\u5546\u5e97", "opening_hours": "24/7", "payment:ep_easycard": "yes", "payment:ep_ipass": "yes", "shop": "convenience"}}, {"type": "node", "id": 1290250665, "lat": 24.9384028, "lon": 121.2316889, "tags": {"alt_name": "\u7d71\u4e00\u8d85\u5546", "brand": "7-Eleven", "brand:en": "7-Eleven", "brand:wikidata": "Q259340", "brand:wikipedia": "en:7-Eleven", "name": "7-Eleven", "payment:ep_easycard": "yes", "payment:ep_ipass": "yes", "shop": "convenience"}}, {"type": "node", "id": 1293106145, "lat": 24.9406063, "lon": 121.2170823}, {"type": "node", "id": 1293106150, "lat": 24.9413354, "lon": 121.214508}, {"type": "node", "id": 1293106156, "lat": 24.9406841, "lon": 121.2151404}, {"type": "node", "id": 1293106159, "lat": 24.9405771, "lon": 121.2167498}, {"type": "node", "id": 1293106176, "lat": 24.9409078, "lon": 121.2167068}, {"type": "node", "id": 1293106177, "lat": 24.9406938, "lon": 121.2144972}, {"type": "node", "id": 1293106179, "lat": 24.9409662, "lon": 121.217018}, {"type": "node", "id": 1293106180, "lat": 24.9414229, "lon": 121.2147762}, {"type": "node", "id": 1293106182, "lat": 24.9414132, "lon": 121.2151726}, {"type": "node", "id": 1294159362, "lat": 24.9645984, "lon": 121.225828, "tags": {"addr:city": "\u6843\u5712\u5e02", "addr:country": "TW", "addr:district": "\u4e2d\u58e2\u5340", "addr:housenumber": "152", "addr:postcode": "320045", "addr:street": "\u6148\u60e0\u4e09\u8857", "alt_name": "\u7d71\u4e00\u8d85\u5546", "branch": "\u6d77\u83ef\u9580\u5e02", "brand": "7-Eleven", "brand:en": "7-Eleven", "brand:wikidata": "Q259340", "brand:wikipedia": "en:7-Eleven", "name": "7-Eleven", "payment:ep_easycard": "yes", "payment:ep_ipass": "yes", "shop": "convenience"}}, {"type": "node", "id": 1294159698, "lat": 24.9654206, "lon": 121.2260353, "tags": {"addr:city": "\u6843\u5712\u5e02", "addr:country": "TW", "addr:district": "\u4e2d\u58e2\u5340", "addr:housenumber": "392", "addr:street": "\u74b0\u5317\u8def", "brand": "\u5bb6\u6a02\u798f\u8d85\u5e02", "brand:en": "Carrefour Market", "brand:nan": "Ka-lo\u030dk-hok Chhiau-chh\u012b", "brand:nan-Hant": "\u5bb6\u6a02\u798f\u8d85\u5e02", "brand:nan-Latn-pehoeji": "Ka-lo\u030dk-hok Chhiau-chh\u012b", "brand:nan-Latn-tailo": "Ka-lo\u030dk-hok Tshiau-tsh\u012b", "brand:wikidata": "Q2689639", "brand:wikipedia": "en:Wellcome", "brand:zh": "\u5bb6\u6a02\u798f\u8d85\u5e02", "name": "\u5bb6\u6a02\u798f\u8d85\u5e02", "name:en": "Carrefour Market", "name:nan": "Ka-lo\u030dk-hok Chhiau-chh\u012b", "name:nan-Hant": "\u5bb6\u6a02\u798f\u8d85\u5e02", "name:nan-Latn-pehoeji": "Ka-lo\u030dk-hok Chhiau-chh\u012b", "name:nan-Latn-tailo": "Ka-lo\u030dk-hok Tshiau-tsh\u012b", "name:zh": "\u5bb6\u6a02\u798f\u8d85\u5e02", "opening_hours": "Mo-Su 07:00-24:00", "shop": "supermarket"}}, {"type": "node", "id": 1294161112, "lat": 24.9611945, "lon": 121.2231438, "tags": {"addr:city": "\u6843\u5712\u5e02", "addr:country": "TW", "addr:district": "\u4e2d\u58e2\u5340", "addr:full": "32086\u6843\u5712\u5e02\u4e2d\u58e2\u5340\u65b0\u751f\u8def182\u865f", "addr:housenumber": "182", "addr:postcode": "320007", "addr:street": "\u65b0\u751f\u8def", "alt_name": "\u7d71\u4e00\u8d85\u5546", "atm": "yes", "branch": "\u4e16\u7d00\u5ee3\u5834\u9580\u5e02", "brand": "7-Eleven", "brand:en": "7-Eleven", "brand:wikidata": "Q259340", "brand:wikipedia": "en:7-Eleven", "internet_access": "wlan", "name": "7-Eleven", "opening_hours": "24/7", "operator": "\u7d71\u4e00\u8d85\u5546\u80a1\u4efd\u6709\u9650\u516c\u53f8", "payment:ep_easycard": "yes", "payment:ep_ipass": "yes", "phone": "+886-3-280-6459", "ref": "940106", "shop": "convenience", "toilets": "no", "website": "https://www.7-11.com.tw/", "wheelchair": "yes"}}, {"type": "node", "id": 1294167327, "lat": 24.9546094, "lon": 121.2221782, "tags": {"brand": "\u99ac\u53ef\u5148\u751f", "brand:en": "Mr. Mark", "brand:wikidata": "Q108366217", "brand:zh": "\u99ac\u53ef\u5148\u751f", "name": "\u99ac\u53ef\u5148\u751f", "name:en": "Mr. Mark", "name:zh": "\u99ac\u53ef\u5148\u751f", "shop": "bakery"}}, {"type": "node", "id": 1294182711, "lat": 24.9562926, "lon": 121.225591, "tags": {"addr:city": "\u6843\u5712\u5e02", "addr:country": "TW", "addr:district": "\u4e2d\u58e2\u5340", "addr:full": "32041\u6843\u5712\u5e02\u4e2d\u58e2\u5340\u4e2d\u592e\u6771\u8def62\u865f", "addr:housenumber": "62", "addr:postcode": "320061", "addr:street": "\u4e2d\u592e\u6771\u8def", "alt_name": "\u7d71\u4e00\u8d85\u5546", "atm": "yes", "branch": "\u4f86\u4f86\u9580\u5e02", "brand": "7-Eleven", "brand:en": "7-Eleven", "brand:wikidata": "Q259340", "brand:wikipedia": "en:7-Eleven", "internet_access": "wlan", "name": "7-Eleven", "opening_hours": "24/7", "operator": "\u7d71\u4e00\u8d85\u5546\u80a1\u4efd\u6709\u9650\u516c\u53f8", "payment:ep_easycard": "yes", "payment:ep_ipass": "yes", "phone": "+886-3-425-1211", "ref": "128656", "shop": "convenience", "toilets": "no", "website": "https://www.7-11.com.tw/"}}, {"type": "node", "id": 1296260241, "lat": 24.9215902, "lon": 121.2131342}, {"type": "node", "id": 1296260243, "lat": 24.9207753, "lon": 121.2135309}, {"type": "node", "id": 1296260247, "lat": 24.921387, "lon": 121.2124107}, {"type": "node", "id": 1296260248, "lat": 24.9206251, "lon": 121.2127619}, {"type": "node", "id": 1296310422, "lat": 24.9638772, "lon": 121.2341453, "tags": {"name": "\u5fa9\u8208\u822a\u68e7 \u70d8\u7119\u5c4b", "shop": "bakery"}}, {"type": "node", "id": 1296310435, "lat": 24.9544387, "lon": 121.2235951, "tags": {"addr:city": "\u6843\u5712\u5e02", "addr:country": "TW", "addr:district": "\u4e2d\u58e2\u5340", "addr:full": "32041\u6843\u5712\u5e02\u4e2d\u58e2\u5340\u4e2d\u6b63\u8def89\u865f", "addr:housenumber": "89", "addr:postcode": "32041", "addr:street": "\u4e2d\u6b63\u8def", "branch": "\u4e2d\u58e2\u65d7\u8266\u5e97", "brand": "\u588a\u8173\u77f3", "name": "\u588a\u8173\u77f3\u5716\u66f8\u5ee3\u5834", "name:zh": "\u588a\u8173\u77f3\u5716\u66f8\u5ee3\u5834", "operator": "\u588a\u8173\u77f3\u5716\u66f8\u80a1\u4efd\u6709\u9650\u516c\u53f8", "phone": "+886-3-422-8851", "shop": "books", "website": "https://www.steppingstone.com.tw/", "wheelchair": "no"}}, {"type": "node", "id": 1300872893, "lat": 24.9644909, "lon": 121.2362926, "tags": {"addr:city": "\u6843\u5712\u5e02", "addr:country": "TW", "addr:district": "\u4e2d\u58e2\u5340", "addr:housenumber": "328", "addr:street": "\u4e2d\u83ef\u8def\u4e8c\u6bb5", "alt_name": "\u7d71\u4e00\u8d85\u5546", "branch": "\u65b0\u4e2d\u83ef\u9580\u5e02", "brand": "7-Eleven", "brand:en": "7-Eleven", "brand:wikidata": "Q259340", "brand:wikipedia": "en:7-Eleven", "name": "7-Eleven", "opening_hours": "24/7", "payment:ep_easycard": "yes", "payment:ep_ipass": "yes", "shop": "convenience"}}, {"type": "node", "id": 1300873985, "lat": 24.9685694, "lon": 121.2575799, "tags": {"addr:city": "\u6843\u5712\u5e02", "addr:country": "TW", "addr:district": "\u4e2d\u58e2\u5340", "addr:housenumber": "141", "addr:street": "\u838a\u656c\u8def", "alt_name": "\u7d71\u4e00\u8d85\u5546", "branch": "\u5bcc\u838a\u9580\u5e02", "brand": "7-Eleven", "brand:en": "7-Eleven", "brand:wikidata": "Q259340", "brand:wikipedia": "en:7-Eleven", "name": "7-Eleven", "opening_hours": "24/7", "payment:ep_easycard": "yes", "payment:ep_ipass": "yes", "shop": "convenience"}}, {"type": "node", "id": 1302055221, "lat": 24.95434, "lon": 121.2259823, "tags": {"addr:city": "\u6843\u5712\u5e02", "addr:country": "TW", "addr:district": "\u4e2d\u58e2\u5340", "addr:housenumber": "8", "addr:postcode": "320001", "addr:street": "\u4e2d\u5e73\u8def", "alt_name": "\u7d71\u4e00\u8d85\u5546", "branch": "\u58e2\u548c\u9580\u5e02", "brand": "7-Eleven", "brand:en": "7-Eleven", "brand:wikidata": "Q259340", "brand:wikipedia": "en:7-Eleven", "name": "7-Eleven", "opening_hours": "24/7", "payment:ep_easycard": "yes", "payment:ep_ipass": "yes", "phone": "886 3 280 6742", "shop": "convenience", "wheelchair": "limited"}}, {"type": "node", "id": 1399402309, "lat": 24.9567993, "lon": 121.1673698, "tags": {"brand": "\u5168\u5bb6\u4fbf\u5229\u5546\u5e97", "brand:en": "FamilyMart", "brand:ja": "\u30d5\u30a1\u30df\u30ea\u30fc\u30de\u30fc\u30c8", "brand:wikidata": "Q10891564", "brand:wikipedia": "zh:\u5168\u5bb6\u4fbf\u5229\u5546\u5e97", "brand:zh": "\u5168\u5bb6\u4fbf\u5229\u5546\u5e97", "name": "\u5168\u5bb6\u4fbf\u5229\u5546\u5e97", "name:en": "FamilyMart", "name:zh": "\u5168\u5bb6\u4fbf\u5229\u5546\u5e97", "opening_hours": "24/7", "payment:ep_easycard": "yes", "payment:ep_ipass": "yes", "shop": "convenience"}}, {"type": "node", "id": 1399402326, "lat": 24.9578094, "lon": 121.1670349, "tags": {"addr:city": "\u6843\u5712\u5e02", "addr:country": "TW", "addr:district": "\u4e2d\u58e2\u5340", "addr:housenumber": "451", "addr:street": "\u6c11\u65cf\u8def\u4e94\u6bb5", "alt_name": "\u7d71\u4e00\u8d85\u5546", "branch": "\u904e\u5dba\u9580\u5e02", "brand": "7-Eleven", "brand:en": "7-Eleven", "brand:wikidata": "Q259340", "brand:wikipedia": "en:7-Eleven", "name": "7-Eleven", "opening_hours": "24/7", "payment:ep_easycard": "yes", "payment:ep_ipass": "yes", "shop": "convenience"}}, {"type": "node", "id": 1401875942, "lat": 24.9645654, "lon": 121.2290452, "tags": {"addr:city": "\u6843\u5712\u5e02", "addr:country": "TW", "addr:district": "\u4e2d\u58e2\u5340", "addr:housenumber": "543", "addr:street": "\u74b0\u5317\u8def", "alt_name": "\u7d71\u4e00\u8d85\u5546", "branch": "\u65b0\u8857\u9580\u5e02", "brand": "7-Eleven", "brand:en": "7-Eleven", "brand:wikidata": "Q259340", "brand:wikipedia": "en:7-Eleven", "name": "7-Eleven", "opening_hours": "24/7", "payment:ep_easycard": "yes", "payment:ep_ipass": "yes", "shop": "convenience"}}, {"type": "node", "id": 1401876140, "lat": 24.9674924, "lon": 121.2315394, "tags": {"addr:city": "\u6843\u5712\u5e02", "addr:country": "TW", "addr:district": "\u4e2d\u58e2\u5340", "addr:housenumber": "392", "addr:street": "\u798f\u5dde\u4e8c\u8857", "alt_name": "\u7d71\u4e00\u8d85\u5546", "branch": "\u65b0\u798f\u8857\u9580\u5e02", "brand": "7-Eleven", "brand:en": "7-Eleven", "brand:wikidata": "Q259340", "brand:wikipedia": "en:7-Eleven", "name": "7-Eleven", "opening_hours": "24/7", "payment:ep_easycard": "yes", "payment:ep_ipass": "yes", "shop": "convenience"}}, {"type": "node", "id": 1404222410, "lat": 24.9570159, "lon": 121.1610982, "tags": {"addr:city": "\u6843\u5712\u5e02", "addr:country": "TW", "addr:district": "\u65b0\u5c4b\u5340", "addr:housenumber": "206", "addr:street": "\u65b0\u69ae\u8def", "branch": "\u65b0\u5c4b\u5bcc\u69ae\u5e97", "brand": "\u5168\u5bb6\u4fbf\u5229\u5546\u5e97", "brand:en": "FamilyMart", "brand:ja": "\u30d5\u30a1\u30df\u30ea\u30fc\u30de\u30fc\u30c8", "brand:wikidata": "Q10891564", "brand:zh": "\u5168\u5bb6\u4fbf\u5229\u5546\u5e97", "name": "\u5168\u5bb6\u4fbf\u5229\u5546\u5e97", "name:en": "FamilyMart", "name:zh": "\u5168\u5bb6\u4fbf\u5229\u5546\u5e97", "opening_hours": "24/7", "payment:ep_easycard": "yes", "payment:ep_ipass": "yes", "shop": "convenience"}}, {"type": "node", "id": 1404222412, "lat": 24.9574545, "lon": 121.163908, "tags": {"addr:city": "\u6843\u5712\u5e02", "addr:country": "TW", "addr:district": "\u65b0\u5c4b\u5340", "addr:housenumber": "88", "addr:street": "\u65b0\u69ae\u8def", "branch": "\u65b0\u5c4b\u6c34\u5dba\u5e97", "brand": "\u840a\u723e\u5bcc", "brand:en": "Hi-Life", "brand:ja": "\u30d5\u30a1\u30df\u30ea\u30fc\u30de\u30fc\u30c8", "brand:wikidata": "Q11326216", "brand:wikipedia": "zh:\u5168\u5bb6\u4fbf\u5229\u5546\u5e97", "brand:zh": "\u840a\u723e\u5bcc", "name": "\u840a\u723e\u5bcc", "name:en": "Hi-Life", "name:zh": "\u840a\u723e\u5bcc", "opening_hours": "24/7", "payment:ep_easycard": "yes", "payment:ep_ipass": "yes", "shop": "convenience"}}, {"type": "node", "id": 1413143337, "lat": 24.8958611, "lon": 121.2621534, "tags": {"brand": "\u5168\u5bb6\u4fbf\u5229\u5546\u5e97", "brand:en": "FamilyMart", "brand:ja": "\u30d5\u30a1\u30df\u30ea\u30fc\u30de\u30fc\u30c8", "brand:wikidata": "Q10891564", "brand:wikipedia": "zh:\u5168\u5bb6\u4fbf\u5229\u5546\u5e97", "brand:zh": "\u5168\u5bb6\u4fbf\u5229\u5546\u5e97", "name": "\u5168\u5bb6\u4fbf\u5229\u5546\u5e97", "name:en": "FamilyMart", "name:zh": "\u5168\u5bb6\u4fbf\u5229\u5546\u5e97", "opening_hours": "24/7", "payment:ep_easycard": "yes", "payment:ep_ipass": "yes", "shop": "convenience"}}, {"type": "node", "id": 1413143458, "lat": 24.896495, "lon": 121.2617197, "tags": {"addr:city": "\u6843\u5712\u5e02", "addr:country": "TW", "addr:district": "\u5927\u6eaa\u5340", "addr:housenumber": "320", "addr:street": "\u6c38\u660c\u8def", "alt_name": "\u7d71\u4e00\u8d85\u5546", "branch": "\u65b0\u5289\u8208\u9580\u5e02", "brand": "7-Eleven", "brand:en": "7-Eleven", "brand:wikidata": "Q259340", "brand:wikipedia": "en:7-Eleven", "name": "7-Eleven", "opening_hours": "24/7", "payment:ep_easycard": "yes", "payment:ep_ipass": "yes", "shop": "convenience"}}, {"type": "node", "id": 1439005288, "lat": 24.9302626, "lon": 121.1724494}, {"type": "node", "id": 1439005290, "lat": 24.936833, "lon": 121.1672192, "tags": {"alt_name": "\u7d71\u4e00\u8d85\u5546", "brand": "7-Eleven", "brand:en": "7-Eleven", "brand:wikidata": "Q259340", "brand:wikipedia": "en:7-Eleven", "name": "7-Eleven", "opening_hours": "24/7", "payment:ep_easycard": "yes", "payment:ep_ipass": "yes", "shop": "convenience"}}, {"type": "node", "id": 1452530821, "lat": 24.9246274, "lon": 121.1449699, "tags": {"addr:city": "\u6843\u5712\u5e02", "addr:country": "TW", "addr:district": "\u694a\u6885\u5340", "addr:housenumber": "133", "addr:street": "\u6885\u9ad8\u8def", "alt_name": "\u7d71\u4e00\u8d85\u5546", "branch": "\u82d9\u4f51\u9580\u5e02", "brand": "7-Eleven", "brand:en": "7-Eleven", "brand:wikidata": "Q259340", "brand:wikipedia": "en:7-Eleven", "name": "7-Eleven", "opening_hours": "24/7", "payment:ep_easycard": "yes", "payment:ep_ipass": "yes", "shop": "convenience"}}, {"type": "node", "id": 1455761016, "lat": 25.0399722, "lon": 121.2955748}, {"type": "node", "id": 1455761069, "lat": 25.0397036, "lon": 121.2946773}, {"type": "node", "id": 1455761105, "lat": 25.0407054, "lon": 121.2952916}, {"type": "node", "id": 1455761121, "lat": 25.0404611, "lon": 121.2945024}, {"type": "node", "id": 1474178721, "lat": 24.8245595, "lon": 121.3545724, "tags": {"addr:city": "\u6843\u5712\u5e02", "addr:country": "TW", "addr:district": "\u5fa9\u8208\u5340", "addr:housenumber": "275\u4e4b9", "addr:street": "\u4e2d\u6b63\u8def", "branch": "\u5fa9\u8208\u65fa\u8a6e\u5e97", "brand": "\u840a\u723e\u5bcc", "brand:en": "Hi-Life", "brand:wikidata": "Q11326216", "brand:wikipedia": "zh:\u840a\u723e\u5bcc", "int_name": "Hi-Life", "name": "\u840a\u723e\u5bcc", "name:en": "Hi-Life", "name:zh": "\u840a\u723e\u5bcc", "opening_hours": "24/7", "payment:ep_easycard": "yes", "payment:ep_ipass": "yes", "shop": "convenience"}}, {"type": "node", "id": 1496112617, "lat": 24.9646078, "lon": 121.1908803, "tags": {"addr:city": "\u6843\u5712\u5e02", "addr:country": "TW", "addr:district": "\u4e2d\u58e2\u5340", "addr:housenumber": "218", "addr:street": "\u4e2d\u592e\u8def", "branch": "\u4e2d\u58e2\u9f8d\u51f1\u5e97", "brand": "\u5168\u5bb6\u4fbf\u5229\u5546\u5e97", "brand:en": "FamilyMart", "brand:ja": "\u30d5\u30a1\u30df\u30ea\u30fc\u30de\u30fc\u30c8", "brand:wikidata": "Q10891564", "brand:wikipedia": "en:FamilyMart", "brand:zh": "\u5168\u5bb6\u4fbf\u5229\u5546\u5e97", "capacity": "20", "name": "\u5168\u5bb6\u4fbf\u5229\u5546\u5e97", "name:en": "FamilyMart", "name:zh": "\u5168\u5bb6\u4fbf\u5229\u5546\u5e97", "ncu:hygiene": "2", "opening_hours": "24/7", "payment:ep_easycard": "yes", "payment:ep_ipass": "yes", "shop": "convenience", "takeaway": "yes"}}, {"type": "node", "id": 1496112618, "lat": 24.9655537, "lon": 121.1910118, "tags": {"addr:city": "\u6843\u5712\u5e02", "addr:country": "TW", "addr:district": "\u5e73\u93ae\u5340", "addr:housenumber": "187", "addr:street": "\u4e2d\u592e\u8def", "branch": "\u5b78\u592e\u9580\u5e02", "brand": "7-Eleven", "brand:en": "7-Eleven", "brand:wikidata": "Q259340", "brand:wikipedia": "en:7-Eleven", "capacity": "30", "name": "7-Eleven", "ncu:hygiene": "2", "opening_hours": "24/7", "payment:cash": "yes", "shop": "convenience", "takeaway": "yes", "wheelchair": "yes"}}, {"type": "node", "id": 1699673341, "lat": 24.9745251, "lon": 121.2560885, "tags": {"addr:city": "\u6843\u5712\u5e02", "addr:country": "TW", "addr:district": "\u4e2d\u58e2\u5340", "addr:housenumber": "74", "addr:street": "\u5fe0\u5b5d\u8def", "brand": "\u5bf6\u96c5", "brand:en": "POYA", "brand:wikidata": "Q15927734", "brand:wikipedia": "zh:\u5bf6\u96c5", "brand:zh": "\u5bf6\u96c5", "check_date": "2024-12-21", "dispensing": "no", "name": "\u5bf6\u96c5", "name:en": "POYA", "name:zh": "\u5bf6\u96c5", "opening_hours": "Mo-Su 10:00-22:30", "shop": "chemist"}}, {"type": "node", "id": 1699673354, "lat": 24.9790863, "lon": 121.2505397, "tags": {"addr:city": "\u6843\u5712\u5e02", "addr:country": "TW", "addr:district": "\u4e2d\u58e2\u5340", "addr:housenumber": "3", "addr:postcode": "320", "addr:street": "\u9577\u6625\u8def", "amenity": "pharmacy", "brand": "\u5c48\u81e3\u6c0f", "brand:en": "Watsons", "brand:wikidata": "Q7974785", "brand:wikipedia": "zh:\u5c48\u81e3\u6c0f\u500b\u4eba\u8b77\u7406\u5e97", "brand:zh": "\u5c48\u81e3\u6c0f", "healthcare": "pharmacy", "name": "\u5c48\u81e3\u6c0f", "name:en": "Watsons", "name:zh": "\u5c48\u81e3\u6c0f", "shop": "chemist"}}, {"type": "node", "id": 1699673356, "lat": 24.9697205, "lon": 121.2475591, "tags": {"name": "\u70d8\u7119\u574a", "shop": "bakery"}}, {"type": "node", "id": 1706876741, "lat": 24.9788609, "lon": 121.250073, "tags": {"amenity": "cafe", "cuisine": "coffee_shop", "name": "COFFEE+\u5496\u5561\u5bb6;\u4eac\u5178\u5c08\u696d\u70d8\u7119\u574a", "shop": "bakery"}}, {"type": "node", "id": 1707844683, "lat": 24.9936668, "lon": 121.3107681, "tags": {"addr:city": "\u6843\u5712\u5e02", "addr:country": "TW", "addr:district": "\u6843\u5712\u5340", "addr:housenumber": "94", "addr:street": "\u65b0\u6c11\u8857", "name": "\u5927\u9686\u978b\u884c", "shop": "clothes", "website": "http://shoestw.blogspot.com/"}}, {"type": "node", "id": 1737293783, "lat": 24.991016, "lon": 121.2794607, "tags": {"addr:city": "\u6843\u5712\u5e02", "addr:country": "TW", "addr:district": "\u6843\u5712\u5340", "addr:housenumber": "143", "addr:street": "\u9f8d\u5b89\u8857", "alt_name": "\u7d71\u4e00\u8d85\u5546", "branch": "\u9f8d\u8896\u9580\u5e02", "brand": "7-Eleven", "brand:en": "7-Eleven", "brand:wikidata": "Q259340", "brand:wikipedia": "en:7-Eleven", "name": "7-Eleven", "opening_hours": "24/7", "payment:ep_easycard": "yes", "payment:ep_ipass": "yes", "shop": "convenience"}}, {"type": "node", "id": 1737293896, "lat": 24.9921407, "lon": 121.2787816, "tags": {"addr:city": "\u6843\u5712\u5e02", "addr:country": "TW", "addr:district": "\u6843\u5712\u5340", "addr:housenumber": "169-3", "addr:street": "\u9f8d\u5b89\u8857", "branch": "\u6843\u5712\u9f8d\u5b89\u5e97", "brand": "\u5168\u5bb6\u4fbf\u5229\u5546\u5e97", "brand:en": "FamilyMart", "brand:ja": "\u30d5\u30a1\u30df\u30ea\u30fc\u30de\u30fc\u30c8", "brand:wikidata": "Q10891564", "brand:wikipedia": "zh:\u5168\u5bb6\u4fbf\u5229\u5546\u5e97", "brand:zh": "\u5168\u5bb6\u4fbf\u5229\u5546\u5e97", "name": "\u5168\u5bb6\u4fbf\u5229\u5546\u5e97", "name:en": "FamilyMart", "name:zh": "\u5168\u5bb6\u4fbf\u5229\u5546\u5e97", "opening_hours": "24/7", "payment:ep_easycard": "yes", "payment:ep_ipass": "yes", "shop": "convenience"}}, {"type": "node", "id": 1804705128, "lat": 24.997238, "lon": 121.3185784, "tags": {"alt_name": "\u7d71\u4e00\u8d85\u5546", "atm": "yes", "branch": "\u9752\u6eaa\u9580\u5e02", "brand": "7-Eleven", "brand:en": "7-Eleven", "brand:wikidata": "Q259340", "brand:wikipedia": "en:7-Eleven", "check_date": "2024-10-27", "level": "1", "name": "7-Eleven", "name:zh": "7-Eleven", "opening_hours": "24/7", "payment:ep_easycard": "yes", "payment:ep_ipass": "yes", "shop": "convenience"}}, {"type": "node", "id": 1804705131, "lat": 24.9922608, "lon": 121.3134332, "tags": {"branch": "\u6843\u5712\u548c\u4fe1\u5e97", "brand": "\u5168\u5bb6\u4fbf\u5229\u5546\u5e97", "brand:en": "FamilyMart", "brand:ja": "\u30d5\u30a1\u30df\u30ea\u30fc\u30de\u30fc\u30c8", "brand:wikidata": "Q10891564", "brand:wikipedia": "zh:\u5168\u5bb6\u4fbf\u5229\u5546\u5e97", "brand:zh": "\u5168\u5bb6\u4fbf\u5229\u5546\u5e97", "name": "\u5168\u5bb6\u4fbf\u5229\u5546\u5e97", "name:en": "FamilyMart", "name:zh": "\u5168\u5bb6\u4fbf\u5229\u5546\u5e97", "payment:ep_easycard": "yes", "payment:ep_ipass": "yes", "shop": "convenience"}}, {"type": "node", "id": 1804705133, "lat": 24.9915947, "lon": 121.3146294, "tags": {"addr:city": "\u6843\u5712\u5e02", "addr:country": "TW", "addr:district": "\u6843\u5712\u5340", "addr:housenumber": "74", "addr:street": "\u6c11\u751f\u8def", "branch": "\u6843\u5712\u6c11\u5b89\u5e97", "brand": "\u5168\u5bb6\u4fbf\u5229\u5546\u5e97", "brand:en": "FamilyMart", "brand:ja": "\u30d5\u30a1\u30df\u30ea\u30fc\u30de\u30fc\u30c8", "brand:wikidata": "Q10891564", "brand:wikipedia": "zh:\u5168\u5bb6\u4fbf\u5229\u5546\u5e97", "brand:zh": "\u5168\u5bb6\u4fbf\u5229\u5546\u5e97", "check_date": "2024-11-29", "name": "\u5168\u5bb6\u4fbf\u5229\u5546\u5e97", "name:en": "FamilyMart", "name:zh": "\u5168\u5bb6\u4fbf\u5229\u5546\u5e97", "payment:ep_easycard": "yes", "payment:ep_ipass": "yes", "shop": "convenience"}}, {"type": "node", "id": 1812764129, "lat": 24.9897556, "lon": 121.312347}, {"type": "node", "id": 1812764131, "lat": 24.9901702, "lon": 121.3127399}, {"type": "node", "id": 1812765824, "lat": 24.9899528, "lon": 121.3141505}, {"type": "node", "id": 1812765825, "lat": 24.9895665, "lon": 121.3144178}, {"type": "node", "id": 1812765826, "lat": 24.9893793, "lon": 121.3138238}, {"type": "node", "id": 1812765827, "lat": 24.9897733, "lon": 121.3136726}, {"type": "node", "id": 1812768532, "lat": 24.9907396, "lon": 121.3122725}, {"type": "node", "id": 1812833525, "lat": 24.9853281, "lon": 121.2844647}, {"type": "node", "id": 1812833526, "lat": 24.9848897, "lon": 121.2847501}, {"type": "node", "id": 1812833527, "lat": 24.9855596, "lon": 121.2848976}, {"type": "node", "id": 1812833529, "lat": 24.9851212, "lon": 121.285183}, {"type": "node", "id": 1812835116, "lat": 24.983898, "lon": 121.2856531}, {"type": "node", "id": 1812835120, "lat": 24.9858778, "lon": 121.2858447}, {"type": "node", "id": 1812835122, "lat": 24.9856258, "lon": 121.2865869}, {"type": "node", "id": 1812835123, "lat": 24.9855819, "lon": 121.2858589}, {"type": "node", "id": 1812835125, "lat": 24.9839771, "lon": 121.2866706}, {"type": "node", "id": 1812835127, "lat": 24.9858622, "lon": 121.2855437}, {"type": "node", "id": 1813367251, "lat": 24.9851467, "lon": 121.3056715}, {"type": "node", "id": 1817780038, "lat": 24.9224324, "lon": 121.2942886, "tags": {"addr:city": "\u6843\u5712\u5e02", "addr:country": "TW", "addr:district": "\u5927\u6eaa\u5340", "addr:housenumber": "15", "addr:street": "\u50d1\u611b\u4e00\u885772\u5df7", "alt_name": "\u7d71\u4e00\u8d85\u5546", "branch": "\u4e9e\u90fd\u9580\u5e02", "brand": "7-Eleven", "brand:en": "7-Eleven", "brand:wikidata": "Q259340", "brand:wikipedia": "en:7-Eleven", "name": "7-Eleven", "opening_hours": "24/7", "shop": "convenience"}}, {"type": "node", "id": 1833204625, "lat": 24.992543, "lon": 121.3126681}, {"type": "node", "id": 1833204626, "lat": 24.9925874, "lon": 121.3127964}, {"type": "node", "id": 1833204628, "lat": 24.9926954, "lon": 121.3126038}, {"type": "node", "id": 1833204639, "lat": 24.9927399, "lon": 121.3127321}, {"type": "node", "id": 1833363551, "lat": 24.9960705, "lon": 121.3154228, "tags": {"branch": "(Sunfar Computer)", "brand": "\u9806\u767c3C", "brand:en": "SUNFAR", "brand:wikidata": "Q108365505", "brand:zh": "\u9806\u767c3C", "check_date": "2024-12-12", "name": "\u9806\u767c3C", "name:en": "SUNFAR", "name:zh": "\u9806\u767c3C", "shop": "electronics"}}, {"type": "node", "id": 1834315561, "lat": 24.9896638, "lon": 121.3123848}, {"type": "node", "id": 1834315566, "lat": 24.990055, "lon": 121.3128879}, {"type": "node", "id": 1907143014, "lat": 25.0079808, "lon": 121.3116643}, {"type": "node", "id": 1907143017, "lat": 25.0079969, "lon": 121.3118554}, {"type": "node", "id": 1907143021, "lat": 25.0080752, "lon": 121.3121362}, {"type": "node", "id": 1907143026, "lat": 25.0083675, "lon": 121.3120418}, {"type": "node", "id": 1907143048, "lat": 25.0086667, "lon": 121.3119359}, {"type": "node", "id": 1907143062, "lat": 25.0090696, "lon": 121.3117725}, {"type": "node", "id": 1907143065, "lat": 25.0091777, "lon": 121.3112109}, {"type": "node", "id": 1907143069, "lat": 25.0093619, "lon": 121.31154}, {"type": "node", "id": 1907143070, "lat": 25.0093757, "lon": 121.3116436}, {"type": "node", "id": 1907143071, "lat": 25.0093849, "lon": 121.3116091}, {"type": "node", "id": 1907143073, "lat": 25.0094332, "lon": 121.3114318}, {"type": "node", "id": 1907143077, "lat": 25.0094425, "lon": 121.3111142}, {"type": "node", "id": 1907143079, "lat": 25.0094517, "lon": 121.3115032}, {"type": "node", "id": 1907143081, "lat": 25.0094678, "lon": 121.3113582}, {"type": "node", "id": 1907143083, "lat": 25.0095115, "lon": 121.3112753}, {"type": "node", "id": 1909501619, "lat": 25.0086367, "lon": 121.3108763}, {"type": "node", "id": 1909501620, "lat": 25.0087073, "lon": 121.3109911}, {"type": "node", "id": 1909501626, "lat": 25.0089256, "lon": 121.3106599}, {"type": "node", "id": 1909501629, "lat": 25.0089962, "lon": 121.3107747}, {"type": "node", "id": 1909501661, "lat": 25.0108711, "lon": 121.3105056}, {"type": "node", "id": 1909501664, "lat": 25.0109678, "lon": 121.3108025}, {"type": "node", "id": 1909501665, "lat": 25.0110822, "lon": 121.3104219}, {"type": "node", "id": 1909501666, "lat": 25.0111789, "lon": 121.3107189}, {"type": "node", "id": 1911706809, "lat": 24.9889038, "lon": 121.3099175}, {"type": "node", "id": 1911706816, "lat": 24.9891068, "lon": 121.3101437}, {"type": "node", "id": 1911706818, "lat": 24.9891296, "lon": 121.3101892}, {"type": "node", "id": 1911706824, "lat": 24.9892012, "lon": 121.3097726}, {"type": "node", "id": 1911706828, "lat": 24.989237, "lon": 121.3098019}, {"type": "node", "id": 1911706832, "lat": 24.9892586, "lon": 121.3097059}, {"type": "node", "id": 1911706840, "lat": 24.9893184, "lon": 121.3097498}, {"type": "node", "id": 1911706842, "lat": 24.9893184, "lon": 121.3100558}, {"type": "node", "id": 1911706844, "lat": 24.9893282, "lon": 121.3099907}, {"type": "node", "id": 1911706846, "lat": 24.9893347, "lon": 121.3101111}, {"type": "node", "id": 1911706850, "lat": 24.9893445, "lon": 121.3100493}, {"type": "node", "id": 1911706854, "lat": 24.9893835, "lon": 121.3098377}, {"type": "node", "id": 1911706856, "lat": 24.9894193, "lon": 121.3099581}, {"type": "node", "id": 1911706860, "lat": 24.9896174, "lon": 121.314398}, {"type": "node", "id": 1911706869, "lat": 24.9896481, "lon": 121.3144946}, {"type": "node", "id": 1911706877, "lat": 24.9897685, "lon": 121.3144061}, {"type": "node", "id": 1911706879, "lat": 24.9897634, "lon": 121.3142232}, {"type": "node", "id": 1911706881, "lat": 24.9897985, "lon": 121.3143346}, {"type": "node", "id": 1911706887, "lat": 24.9898751, "lon": 121.3130829}, {"type": "node", "id": 1911706908, "lat": 24.9900937, "lon": 121.3130038}, {"type": "node", "id": 1911707068, "lat": 24.9889831, "lon": 121.310186}, {"type": "node", "id": 1917414009, "lat": 25.0201588, "lon": 121.2654883, "tags": {"addr:city": "\u6843\u5712\u5e02", "addr:country": "TW", "addr:district": "\u8606\u7af9\u5340", "addr:housenumber": "408", "addr:street": "\u5927\u7af9\u8def", "alt_name": "\u7d71\u4e00\u8d85\u5546", "branch": "\u822a\u7af9\u9580\u5e02", "branch:en": "Hangzhu Store", "brand": "7-Eleven", "brand:en": "7-Eleven", "brand:wikidata": "Q259340", "brand:wikipedia": "en:7-Eleven", "name": "7-Eleven", "name:en": "7-Eleven", "name:ja": "\u30bb\u30d6\u30f3-\u30a4\u30ec\u30d6\u30f3", "name:zh": "7-Eleven", "note": "Store number 993502", "opening_hours": "24/7", "payment:ep_easycard": "yes", "payment:ep_ipass": "yes", "phone": "+886-3-3231007", "shop": "convenience", "website": "https://www.7-11.com.tw/", "wheelchair": "yes"}}, {"type": "node", "id": 1939466637, "lat": 25.0534628, "lon": 121.2819734}, {"type": "node", "id": 1939466716, "lat": 25.0540295, "lon": 121.2810939}, {"type": "node", "id": 1939466756, "lat": 25.0545267, "lon": 121.2828087}, {"type": "node", "id": 1939466828, "lat": 25.0550934, "lon": 121.2819291}, {"type": "node", "id": 1941651733, "lat": 25.0155835, "lon": 121.3054081, "tags": {"amenity": "parking_entrance", "maxheight": "1.9"}}, {"type": "node", "id": 1989264612, "lat": 24.953422, "lon": 121.2967951}, {"type": "node", "id": 1989264613, "lat": 24.9534375, "lon": 121.2983859}, {"type": "node", "id": 1989264616, "lat": 24.9535666, "lon": 121.2965187}, {"type": "node", "id": 1989264617, "lat": 24.9535763, "lon": 121.2967983}, {"type": "node", "id": 1989264619, "lat": 24.9536213, "lon": 121.2983859}, {"type": "node", "id": 1989264622, "lat": 24.9536598, "lon": 121.2984277}, {"type": "node", "id": 1989264626, "lat": 24.9537434, "lon": 121.2965155}, {"type": "node", "id": 1989264628, "lat": 24.9537691, "lon": 121.2970586}, {"type": "node", "id": 1989264640, "lat": 24.9540969, "lon": 121.2970554}, {"type": "node", "id": 1989264641, "lat": 24.9541226, "lon": 121.2978492}, {"type": "node", "id": 1989264646, "lat": 24.9542313, "lon": 121.2984212}, {"type": "node", "id": 1989264647, "lat": 24.9542383, "lon": 121.297846}, {"type": "node", "id": 2002181975, "lat": 24.96851, "lon": 121.3014666}, {"type": "node", "id": 2002181976, "lat": 24.96851, "lon": 121.3015643}, {"type": "node", "id": 2002181978, "lat": 24.9685629, "lon": 121.3015683}, {"type": "node", "id": 2002181979, "lat": 24.9685629, "lon": 121.3021219}, {"type": "node", "id": 2002181981, "lat": 24.9686117, "lon": 121.3021687}, {"type": "node", "id": 2002181982, "lat": 24.9686158, "lon": 121.3022583}, {"type": "node", "id": 2002181983, "lat": 24.9686178, "lon": 121.3022949}, {"type": "node", "id": 2002181984, "lat": 24.9686341, "lon": 121.3022033}, {"type": "node", "id": 2002181985, "lat": 24.9686341, "lon": 121.3023356}, {"type": "node", "id": 2002181986, "lat": 24.9686606, "lon": 121.3023722}, {"type": "node", "id": 2002181987, "lat": 24.9686687, "lon": 121.3021728}, {"type": "node", "id": 2002181988, "lat": 24.9686911, "lon": 121.3023906}, {"type": "node", "id": 2002181989, "lat": 24.9687155, "lon": 121.3014381}, {"type": "node", "id": 2002181990, "lat": 24.9687155, "lon": 121.3014645}, {"type": "node", "id": 2002181991, "lat": 24.9687399, "lon": 121.3023946}, {"type": "node", "id": 2002181992, "lat": 24.9687745, "lon": 121.3023885}, {"type": "node", "id": 2002181993, "lat": 24.9687766, "lon": 121.3021646}, {"type": "node", "id": 2002181994, "lat": 24.9687786, "lon": 121.3021138}, {"type": "node", "id": 2002181995, "lat": 24.9688152, "lon": 121.3023702}, {"type": "node", "id": 2002181996, "lat": 24.9688173, "lon": 121.3021728}, {"type": "node", "id": 2002181997, "lat": 24.9688315, "lon": 121.3014442}, {"type": "node", "id": 2002181998, "lat": 24.9688376, "lon": 121.3022033}, {"type": "node", "id": 2002181999, "lat": 24.9688417, "lon": 121.3023376}, {"type": "node", "id": 2002182000, "lat": 24.9688519, "lon": 121.3022379}, {"type": "node", "id": 2002182001, "lat": 24.9688519, "lon": 121.3022786}, {"type": "node", "id": 2002182002, "lat": 24.9689109, "lon": 121.3015602}, {"type": "node", "id": 2002182003, "lat": 24.9689211, "lon": 121.3021138}, {"type": "node", "id": 2027467564, "lat": 24.9921028, "lon": 121.2824582, "tags": {"addr:city": "\u6843\u5712\u5e02", "addr:country": "TW", "addr:district": "\u6843\u5712\u5340", "addr:housenumber": "220", "addr:street": "\u570b\u5f37\u4e00\u8857", "branch": "\u5c1a\u570b\u9580\u5e02", "brand": "7-Eleven", "brand:en": "7-Eleven", "brand:ja": "\u30d5\u30a1\u30df\u30ea\u30fc\u30de\u30fc\u30c8", "brand:wikidata": "Q259340", "brand:wikipedia": "en:7-Eleven", "name": "7-Eleven", "opening_hours": "24/7", "payment:ep_easycard": "yes", "payment:ep_ipass": "yes", "shop": "convenience"}}, {"type": "node", "id": 2027467565, "lat": 24.9896974, "lon": 121.2833521, "tags": {"alt_name": "\u7d71\u4e00\u8d85\u5546", "brand": "7-Eleven", "brand:en": "7-Eleven", "brand:wikidata": "Q259340", "brand:wikipedia": "en:7-Eleven", "name": "7-Eleven", "payment:ep_easycard": "yes", "payment:ep_ipass": "yes", "shop": "convenience"}}, {"type": "node", "id": 2027467566, "lat": 24.9910643, "lon": 121.282772, "tags": {"addr:city": "\u6843\u5712\u5e02", "addr:country": "TW", "addr:district": "\u6843\u5712\u5340", "addr:housenumber": "100", "addr:street": "\u4e0a\u6d77\u8def", "branch": "\u6843\u5712\u5b8f\u6d77\u5e97", "brand": "\u5168\u5bb6\u4fbf\u5229\u5546\u5e97", "brand:en": "FamilyMart", "brand:ja": "\u30d5\u30a1\u30df\u30ea\u30fc\u30de\u30fc\u30c8", "brand:wikidata": "Q10891564", "brand:wikipedia": "zh:\u5168\u5bb6\u4fbf\u5229\u5546\u5e97", "brand:zh": "\u5168\u5bb6\u4fbf\u5229\u5546\u5e97", "name": "\u5168\u5bb6\u4fbf\u5229\u5546\u5e97", "name:en": "FamilyMart", "name:zh": "\u5168\u5bb6\u4fbf\u5229\u5546\u5e97", "opening_hours": "24/7", "payment:ep_easycard": "yes", "payment:ep_ipass": "yes", "shop": "convenience"}}, {"type": "node", "id": 2027467567, "lat": 24.993092, "lon": 121.2879737, "tags": {"addr:city": "\u6843\u5712\u5e02", "addr:country": "TW", "addr:district": "\u6843\u5712\u5340", "addr:housenumber": "117", "addr:street": "\u570b\u969b\u8def\u4e8c\u6bb5", "brand": "\u5168\u806f\u798f\u5229\u4e2d\u5fc3", "brand:en": "Pxmart", "brand:nan": "Cho\u00e2n-li\u00e2n Hok-l\u012b Tiong-sim", "brand:nan-Hant": "\u5168\u806f\u798f\u5229\u4e2d\u5fc3", "brand:nan-Latn-pehoeji": "Cho\u00e2n-li\u00e2n Hok-l\u012b Tiong-sim", "brand:nan-Latn-tailo": "Tsu\u00e2n-li\u00e2n Hok-l\u012b Tiong-sim", "brand:wikidata": "Q7262792", "brand:wikipedia": "en:PX Mart", "brand:zh": "\u5168\u806f\u798f\u5229\u4e2d\u5fc3", "name": "\u5168\u806f\u798f\u5229\u4e2d\u5fc3", "name:en": "Pxmart", "name:nan": "Cho\u00e2n-li\u00e2n Hok-l\u012b Tiong-sim", "name:nan-Hant": "\u5168\u806f\u798f\u5229\u4e2d\u5fc3", "name:nan-Latn-pehoeji": "Cho\u00e2n-li\u00e2n Hok-l\u012b Tiong-sim", "name:nan-Latn-tailo": "Tsu\u00e2n-li\u00e2n Hok-l\u012b Tiong-sim", "name:zh": "\u5168\u806f\u798f\u5229\u4e2d\u5fc3", "opening_hours": "Mo-Su 08:00-22:00", "shop": "supermarket", "short_name": "\u5168\u806f", "short_name:nan": "Cho\u00e2n-li\u00e2n", "short_name:nan-Hant": "\u5168\u806f", "short_name:nan-Latn-pehoeji": "Cho\u00e2n-li\u00e2n", "short_name:nan-Latn-tailo": "Tsu\u00e2n-li\u00e2n", "short_name:zh": "\u5168\u806f"}}, {"type": "node", "id": 2125562696, "lat": 24.9754143, "lon": 121.2480698, "tags": {"addr:city": "\u6843\u5712\u5e02", "addr:country": "TW", "addr:district": "\u4e2d\u58e2\u5340", "addr:housenumber": "71", "addr:street": "\u5fa9\u83ef\u4e5d\u8857", "branch": "\u4e2d\u58e2\u9577\u83ef\u5e97", "brand": "OK\u8d85\u5546", "brand:en": "OK mart", "brand:wikidata": "Q10851968", "brand:wikipedia": "zh:OK\u8d85\u5546", "int_name": "OK MART", "name": "OK\u8d85\u5546", "name:en": "OK mart", "name:zh": "OK\u4fbf\u5229\u5546\u5e97", "opening_hours": "24/7", "shop": "convenience"}}, {"type": "node", "id": 2125590443, "lat": 24.9567838, "lon": 121.2393743, "tags": {"addr:city": "\u6843\u5712\u5e02", "addr:country": "TW", "addr:district": "\u4e2d\u58e2\u5340", "addr:housenumber": "158", "addr:street": "\u4e2d\u5317\u8def", "alt_name": "\u7d71\u4e00\u8d85\u5546", "branch": "\u67cf\u5fb7\u9580\u5e02", "brand": "7-Eleven", "brand:en": "7-Eleven", "brand:wikidata": "Q259340", "brand:wikipedia": "en:7-Eleven", "name": "7-Eleven", "opening_hours": "24/7", "payment:ep_easycard": "yes", "payment:ep_ipass": "yes", "shop": "convenience"}}, {"type": "node", "id": 2125596114, "lat": 24.9729056, "lon": 121.2531397, "tags": {"brand": "Hang Ten", "name": "Hang Ten", "shop": "clothes"}}, {"type": "node", "id": 2125596116, "lat": 24.972633, "lon": 121.2532735, "tags": {"brand": "Levi's", "brand:wikidata": "Q127962", "brand:wikipedia": "en:Levi Strauss & Co.", "clothes": "denim;men;women", "name": "Levi's", "shop": "clothes"}}, {"type": "node", "id": 2125602552, "lat": 24.9626588, "lon": 121.229198, "tags": {"addr:city": "\u6843\u5712\u5e02", "addr:country": "TW", "addr:district": "\u4e2d\u58e2\u5340", "addr:housenumber": "149", "addr:street": "\u5ef6\u5e73\u8def", "branch": "\u4e2d\u58e2\u5929\u665f\u5e97", "brand": "\u5168\u5bb6\u4fbf\u5229\u5546\u5e97", "brand:en": "FamilyMart", "brand:ja": "\u30d5\u30a1\u30df\u30ea\u30fc\u30de\u30fc\u30c8", "brand:wikidata": "Q10891564", "brand:zh": "\u5168\u5bb6\u4fbf\u5229\u5546\u5e97", "name": "\u5168\u5bb6\u4fbf\u5229\u5546\u5e97", "name:en": "FamilyMart", "name:zh": "\u5168\u5bb6\u4fbf\u5229\u5546\u5e97", "opening_hours": "24/7", "payment:ep_easycard": "yes", "payment:ep_ipass": "yes", "shop": "convenience"}}, {"type": "node", "id": 2125606109, "lat": 24.9662085, "lon": 121.223659, "tags": {"brand": "\u5168\u5bb6\u4fbf\u5229\u5546\u5e97", "brand:en": "FamilyMart", "brand:ja": "\u30d5\u30a1\u30df\u30ea\u30fc\u30de\u30fc\u30c8", "brand:wikidata": "Q10891564", "brand:zh": "\u5168\u5bb6\u4fbf\u5229\u5546\u5e97", "name": "\u5168\u5bb6\u4fbf\u5229\u5546\u5e97", "name:en": "FamilyMart", "name:zh": "\u5168\u5bb6\u4fbf\u5229\u5546\u5e97", "payment:ep_easycard": "yes", "payment:ep_ipass": "yes", "shop": "convenience"}}, {"type": "node", "id": 2125607047, "lat": 24.9631801, "lon": 121.2176007, "tags": {"addr:city": "\u6843\u5712\u5e02", "addr:country": "TW", "addr:district": "\u4e2d\u58e2\u5340", "addr:housenumber": "340", "addr:street": "\u6c11\u6b0a\u8def", "branch": "\u4e2d\u58e2\u5143\u6b0a\u5e97", "brand": "\u5168\u5bb6\u4fbf\u5229\u5546\u5e97", "brand:en": "FamilyMart", "brand:ja": "\u30d5\u30a1\u30df\u30ea\u30fc\u30de\u30fc\u30c8", "brand:wikidata": "Q10891564", "brand:wikipedia": "zh:\u5168\u5bb6\u4fbf\u5229\u5546\u5e97", "brand:zh": "\u5168\u5bb6\u4fbf\u5229\u5546\u5e97", "name": "\u5168\u5bb6\u4fbf\u5229\u5546\u5e97", "name:en": "FamilyMart", "name:zh": "\u5168\u5bb6\u4fbf\u5229\u5546\u5e97", "opening_hours": "24/7", "payment:ep_easycard": "yes", "payment:ep_ipass": "yes", "shop": "convenience"}}, {"type": "node", "id": 2126526407, "lat": 24.9574703, "lon": 121.204531, "tags": {"addr:city": "\u6843\u5712\u5e02", "addr:country": "TW", "addr:district": "\u4e2d\u58e2\u5340", "addr:housenumber": "150 152", "addr:street": "\u6c11\u65cf\u8def\u4e8c\u6bb5", "alt_name": "\u7d71\u4e00\u8d85\u5546", "branch": "\u9ad8\u5c4b\u9580\u5e02", "brand": "7-Eleven", "brand:en": "7-Eleven", "brand:wikidata": "Q259340", "brand:wikipedia": "en:7-Eleven", "name": "7-Eleven", "name:ja": "\u30bb\u30d6\u30f3-\u30a4\u30ec\u30d6\u30f3", "opening_hours": "24/7", "payment:ep_easycard": "yes", "payment:ep_ipass": "yes", "shop": "convenience"}}, {"type": "node", "id": 2126526408, "lat": 24.9641137, "lon": 121.2134681, "tags": {"brand": "\u5168\u5bb6\u4fbf\u5229\u5546\u5e97", "brand:en": "FamilyMart", "brand:ja": "\u30d5\u30a1\u30df\u30ea\u30fc\u30de\u30fc\u30c8", "brand:wikidata": "Q10891564", "brand:zh": "\u5168\u5bb6\u4fbf\u5229\u5546\u5e97", "name": "\u5168\u5bb6\u4fbf\u5229\u5546\u5e97", "name:en": "FamilyMart", "name:zh": "\u5168\u5bb6\u4fbf\u5229\u5546\u5e97", "payment:ep_easycard": "yes", "payment:ep_ipass": "yes", "shop": "convenience"}}, {"type": "node", "id": 2126526410, "lat": 24.9604954, "lon": 121.1901221, "tags": {"addr:city": "\u6843\u5712\u5e02", "addr:country": "TW", "addr:district": "\u4e2d\u58e2\u5340", "addr:housenumber": "402", "addr:street": "\u6c11\u65cf\u8def\u4e09\u6bb5", "alt_name": "\u7d71\u4e00\u8d85\u5546", "branch": "\u5b78\u5c4b\u9580\u5e02", "brand": "7-Eleven", "brand:en": "7-Eleven", "brand:wikidata": "Q259340", "brand:wikipedia": "en:7-Eleven", "name": "7-Eleven", "opening_hours": "24/7", "payment:ep_easycard": "yes", "payment:ep_ipass": "yes", "shop": "convenience"}}, {"type": "node", "id": 2126526411, "lat": 24.9670304, "lon": 121.1905942, "tags": {"brand": "\u5168\u5bb6\u4fbf\u5229\u5546\u5e97", "brand:en": "FamilyMart", "brand:ja": "\u30d5\u30a1\u30df\u30ea\u30fc\u30de\u30fc\u30c8", "brand:wikidata": "Q10891564", "brand:zh": "\u5168\u5bb6\u4fbf\u5229\u5546\u5e97", "name": "\u5168\u5bb6\u4fbf\u5229\u5546\u5e97", "name:en": "FamilyMart", "name:zh": "\u5168\u5bb6\u4fbf\u5229\u5546\u5e97", "payment:ep_easycard": "yes", "payment:ep_ipass": "yes", "shop": "convenience", "wheelchair": "yes"}}, {"type": "node", "id": 2126526412, "lat": 24.9705622, "lon": 121.195744, "tags": {"brand": "\u5168\u5bb6\u4fbf\u5229\u5546\u5e97", "brand:en": "FamilyMart", "brand:ja": "\u30d5\u30a1\u30df\u30ea\u30fc\u30de\u30fc\u30c8", "brand:wikidata": "Q10891564", "brand:zh": "\u5168\u5bb6\u4fbf\u5229\u5546\u5e97", "name": "\u5168\u5bb6\u4fbf\u5229\u5546\u5e97", "name:en": "FamilyMart", "name:zh": "\u5168\u5bb6\u4fbf\u5229\u5546\u5e97", "payment:ep_easycard": "yes", "payment:ep_ipass": "yes", "shop": "convenience", "wheelchair": "yes"}}, {"type": "node", "id": 2126526413, "lat": 24.9656158, "lon": 121.1954721, "tags": {"brand": "\u5168\u5bb6\u4fbf\u5229\u5546\u5e97", "brand:en": "FamilyMart", "brand:ja": "\u30d5\u30a1\u30df\u30ea\u30fc\u30de\u30fc\u30c8", "brand:wikidata": "Q10891564", "brand:wikipedia": "zh:\u5168\u5bb6\u4fbf\u5229\u5546\u5e97", "brand:zh": "\u5168\u5bb6\u4fbf\u5229\u5546\u5e97", "name": "\u5168\u5bb6\u4fbf\u5229\u5546\u5e97", "name:en": "FamilyMart", "name:ja": "\u30d5\u30a1\u30df\u30ea\u30fc\u30de\u30fc\u30c8", "name:zh": "\u5168\u5bb6\u4fbf\u5229\u5546\u5e97", "payment:ep_easycard": "yes", "payment:ep_ipass": "yes", "shop": "convenience", "wheelchair": "yes"}}, {"type": "node", "id": 2126526477, "lat": 24.9569645, "lon": 121.1956368, "tags": {"addr:city": "\u6843\u5712\u5e02", "addr:country": "TW", "addr:district": "\u4e2d\u58e2\u5340", "addr:housenumber": "95", "addr:street": "\u6c11\u65cf\u8def\u4e09\u6bb5", "alt_name": "\u7d71\u4e00\u8d85\u5546", "branch": "\u9ad8\u5b89\u9580\u5e02", "brand": "7-Eleven", "brand:en": "7-Eleven", "brand:wikidata": "Q259340", "brand:wikipedia": "en:7-Eleven", "name": "7-Eleven", "opening_hours": "24/7", "payment:ep_easycard": "yes", "payment:ep_ipass": "yes", "shop": "convenience"}}, {"type": "node", "id": 2126526478, "lat": 24.9653262, "lon": 121.1936348, "tags": {"addr:city": "\u6843\u5712\u5e02", "addr:country": "TW", "addr:district": "\u4e2d\u58e2\u5340", "addr:housenumber": "402", "addr:street": "\u4e94\u8208\u8def", "branch": "\u4e2d\u58e2\u96d9\u9023\u5e97", "brand": "OK\u8d85\u5546", "brand:en": "OK mart", "brand:wikidata": "Q10851968", "name": "OK\u8d85\u5546", "name:en": "OK mart", "name:zh": "OK\u4fbf\u5229\u5546\u5e97", "opening_hours": "24/7", "shop": "convenience"}}, {"type": "node", "id": 2126528885, "lat": 24.9683444, "lon": 121.2353845, "tags": {"addr:city": "\u6843\u5712\u5e02", "addr:country": "TW", "addr:district": "\u4e2d\u58e2\u5340", "addr:housenumber": "526", "addr:street": "\u798f\u5dde\u4e8c\u8857", "branch": "\u4e2d\u58e2\u798f\u7235\u5e97", "brand": "\u5168\u5bb6\u4fbf\u5229\u5546\u5e97", "brand:en": "FamilyMart", "brand:ja": "\u30d5\u30a1\u30df\u30ea\u30fc\u30de\u30fc\u30c8", "brand:wikidata": "Q10891564", "brand:wikipedia": "zh:\u5168\u5bb6\u4fbf\u5229\u5546\u5e97", "brand:zh": "\u5168\u5bb6\u4fbf\u5229\u5546\u5e97", "name": "\u5168\u5bb6\u4fbf\u5229\u5546\u5e97", "name:en": "FamilyMart", "name:zh": "\u5168\u5bb6\u4fbf\u5229\u5546\u5e97", "opening_hours": "24/7", "payment:ep_easycard": "yes", "payment:ep_ipass": "yes", "shop": "convenience"}}, {"type": "node", "id": 2126528888, "lat": 24.9614194, "lon": 121.2264714, "tags": {"addr:city": "\u6843\u5712\u5e02", "addr:country": "TW", "addr:district": "\u4e2d\u58e2\u5340", "addr:housenumber": "268", "addr:postcode": "320045", "addr:street": "\u5ef6\u5e73\u8def", "branch": "\u4e2d\u58e2\u4ec1\u6d77\u5e97", "brand": "\u840a\u723e\u5bcc", "brand:en": "Hi-Life", "brand:wikidata": "Q11326216", "brand:wikipedia": "zh:\u840a\u723e\u5bcc", "brand:zh": "\u840a\u723e\u5bcc", "name": "\u840a\u723e\u5bcc", "name:en": "Hi-Life", "name:zh": "\u840a\u723e\u5bcc", "opening_hours": "24/7", "shop": "convenience"}}, {"type": "node", "id": 2126528954, "lat": 24.9715576, "lon": 121.2343029, "tags": {"addr:city": "\u6843\u5712\u5e02", "addr:country": "TW", "addr:district": "\u4e2d\u58e2\u5340", "addr:housenumber": "63", "addr:street": "\u5357\u5712\u4e8c\u8def", "alt_name": "\u7d71\u4e00\u8d85\u5546", "branch": "\u8c50\u5229\u9580\u5e02", "brand": "7-Eleven", "brand:en": "7-Eleven", "brand:wikidata": "Q259340", "brand:wikipedia": "en:7-Eleven", "name": "7-Eleven", "name:ja": "\u30bb\u30d6\u30f3-\u30a4\u30ec\u30d6\u30f3", "opening_hours": "24/7", "payment:ep_easycard": "yes", "payment:ep_ipass": "yes", "shop": "convenience"}}, {"type": "node", "id": 2126712620, "lat": 24.9796113, "lon": 121.2760884, "tags": {"brand": "\u7f8e\u5ec9\u793e", "brand:en": "Simple Mart", "brand:nan": "B\u00ed-li\u00e2m-si\u0101", "brand:nan-Hant": "\u7f8e\u5ec9\u793e", "brand:nan-Latn-pehoeji": "B\u00ed-li\u00e2m-si\u0101", "brand:nan-Latn-tailo": "B\u00ed-li\u00e2m-si\u0101", "brand:wikidata": "Q15914017", "brand:wikipedia": "zh:\u7f8e\u5ec9\u793e", "brand:zh": "\u7f8e\u5ec9\u793e", "name": "\u7f8e\u5ec9\u793e", "name:en": "Simple Mart", "name:nan": "B\u00ed-li\u00e2m-si\u0101", "name:nan-Hant": "\u7f8e\u5ec9\u793e", "name:nan-Latn-pehoeji": "B\u00ed-li\u00e2m-si\u0101", "name:nan-Latn-tailo": "B\u00ed-li\u00e2m-si\u0101", "name:zh": "\u7f8e\u5ec9\u793e", "shop": "supermarket"}}, {"type": "node", "id": 2127114135, "lat": 24.9784471, "lon": 121.2760132, "tags": {"brand": "OK\u8d85\u5546", "brand:en": "OK mart", "brand:wikidata": "Q10851968", "name": "OK\u8d85\u5546", "name:en": "OK mart", "name:zh": "OK", "shop": "convenience"}}, {"type": "node", "id": 2127324120, "lat": 24.975116, "lon": 121.2722577, "tags": {"name": "\u4e0a\u9752\u751f\u9bae\u8d85\u5e02", "shop": "supermarket"}}, {"type": "node", "id": 2127324267, "lat": 24.9781071, "lon": 121.274248, "tags": {"alt_name": "\u7d71\u4e00\u8d85\u5546", "brand": "7-Eleven", "brand:en": "7-Eleven", "brand:wikidata": "Q259340", "brand:wikipedia": "en:7-Eleven", "name": "7-Eleven", "payment:ep_easycard": "yes", "payment:ep_ipass": "yes", "shop": "convenience"}}, {"type": "node", "id": 2127564348, "lat": 25.0010052, "lon": 121.2279884}, {"type": "node", "id": 2127564354, "lat": 25.0010535, "lon": 121.2283572}, {"type": "node", "id": 2127570136, "lat": 24.9783869, "lon": 121.250858, "tags": {"addr:city": "\u6843\u5712\u5e02", "addr:country": "TW", "addr:district": "\u4e2d\u58e2\u5340", "addr:housenumber": "349", "addr:postcode": "320", "addr:street": "\u6587\u5316\u8def", "branch": "\u4e2d\u58e2\u6587\u5316\u5e97", "brand": "\u7f8e\u5ec9\u793e", "brand:en": "Simple Mart", "brand:nan": "B\u00ed-li\u00e2m-si\u0101", "brand:nan-Hant": "\u7f8e\u5ec9\u793e", "brand:nan-Latn-pehoeji": "B\u00ed-li\u00e2m-si\u0101", "brand:nan-Latn-tailo": "B\u00ed-li\u00e2m-si\u0101", "brand:wikidata": "Q15914017", "brand:wikipedia": "zh:\u7f8e\u5ec9\u793e", "brand:zh": "\u7f8e\u5ec9\u793e", "name": "\u7f8e\u5ec9\u793e", "name:en": "Simple Mart", "name:nan": "B\u00ed-li\u00e2m-si\u0101", "name:nan-Hant": "\u7f8e\u5ec9\u793e", "name:nan-Latn-pehoeji": "B\u00ed-li\u00e2m-si\u0101", "name:nan-Latn-tailo": "B\u00ed-li\u00e2m-si\u0101", "name:zh": "\u7f8e\u5ec9\u793e", "opening_hours": "Mo-Su 07:00-24:00", "operator": "\u4e09\u5546\u4f01\u696d\u96c6\u5718", "operator:en": "Mercuries Group", "operator:wikidata": "Q10865578", "operator:zh": "\u4e09\u5546\u4f01\u696d\u96c6\u5718", "shop": "supermarket"}}, {"type": "node", "id": 2135699135, "lat": 25.0160065, "lon": 121.3113329, "tags": {"shop": "bakery"}}, {"type": "node", "id": 2135706977, "lat": 25.0139048, "lon": 121.310551, "tags": {"shop": "butcher"}}, {"type": "node", "id": 2135707994, "lat": 25.0154452, "lon": 121.310492, "tags": {"shop": "hairdresser"}}, {"type": "node", "id": 2143961856, "lat": 24.948208, "lon": 121.244704}, {"type": "node", "id": 2162041806, "lat": 24.9576197, "lon": 121.2071576, "tags": {"addr:city": "\u6843\u5712\u5e02", "addr:country": "TW", "addr:district": "\u4e2d\u58e2\u5340", "addr:housenumber": "2", "addr:street": "\u74b0\u897f\u8def", "alt_name": "\u7d71\u4e00\u8d85\u5546", "branch": "\u74b0\u6c11\u9580\u5e02", "brand": "7-Eleven", "brand:en": "7-Eleven", "brand:wikidata": "Q259340", "brand:wikipedia": "en:7-Eleven", "name": "7-Eleven", "opening_hours": "24/7", "payment:ep_easycard": "yes", "payment:ep_ipass": "yes", "shop": "convenience"}}, {"type": "node", "id": 2168321407, "lat": 24.9835293, "lon": 121.2856772}, {"type": "node", "id": 2168321409, "lat": 24.9835755, "lon": 121.2865397}, {"type": "node", "id": 2168321411, "lat": 24.9836789, "lon": 121.2853274}, {"type": "node", "id": 2168321412, "lat": 24.9836965, "lon": 121.2856684}, {"type": "node", "id": 2168321413, "lat": 24.9837207, "lon": 121.285323}, {"type": "node", "id": 2168321415, "lat": 24.9837603, "lon": 121.2865309}, {"type": "node", "id": 2168321416, "lat": 24.9837669, "lon": 121.2866123}, {"type": "node", "id": 2168321417, "lat": 24.9838065, "lon": 121.285499}, {"type": "node", "id": 2168321418, "lat": 24.9838087, "lon": 121.2855408}, {"type": "node", "id": 2168321419, "lat": 24.9838307, "lon": 121.2855584}, {"type": "node", "id": 2168321420, "lat": 24.9838615, "lon": 121.2866101}, {"type": "node", "id": 2168321421, "lat": 24.9838659, "lon": 121.2867707}, {"type": "node", "id": 2168321422, "lat": 24.9838923, "lon": 121.2855694}, {"type": "node", "id": 2168321424, "lat": 24.9839759, "lon": 121.2867685}, {"type": "node", "id": 2187934175, "lat": 24.9889926, "lon": 121.3190494, "tags": {"addr:city": "\u6843\u5712\u5e02", "addr:country": "TW", "addr:district": "\u6843\u5712\u5340", "addr:housenumber": "29", "addr:street": "\u6797\u68ee\u8def", "branch": "\u6843\u5e02\u68ee\u6797\u5e97", "brand": "\u840a\u723e\u5bcc", "brand:en": "Hi-Life", "brand:wikidata": "Q11326216", "brand:wikipedia": "zh:\u840a\u723e\u5bcc", "brand:zh": "\u840a\u723e\u5bcc", "name": "\u840a\u723e\u5bcc", "name:en": "Hi-Life", "name:zh": "\u840a\u723e\u5bcc", "opening_hours": "24/7", "payment:ep_easycard": "yes", "payment:ep_ipass": "yes", "shop": "convenience"}}, {"type": "node", "id": 2292239881, "lat": 24.9948124, "lon": 121.3127328, "tags": {"addr:city": "\u6843\u5712\u5e02", "addr:country": "TW", "addr:district": "\u6843\u5712\u5340", "addr:housenumber": "2", "addr:street": "\u65b0\u6c11\u8857", "name": "\u7c73\u862d\u9054", "shop": "clothes"}}, {"type": "node", "id": 2292482086, "lat": 24.9940711, "lon": 121.3114787, "tags": {"brand": "\u5c48\u81e3\u6c0f", "brand:en": "Watsons", "brand:wikidata": "Q7974785", "brand:wikipedia": "zh:\u5c48\u81e3\u6c0f", "brand:zh": "\u5c48\u81e3\u6c0f", "name": "\u5c48\u81e3\u6c0f", "name:en": "Watsons", "name:zh": "\u5c48\u81e3\u6c0f", "shop": "chemist"}}, {"type": "node", "id": 2292486334, "lat": 24.9942435, "lon": 121.3115764, "tags": {"addr:city": "\u6843\u5712\u5e02", "addr:country": "TW", "addr:district": "\u6843\u5712\u5340", "addr:housenumber": "58", "addr:street": "\u65b0\u6c11\u8857", "name": "a la sha", "shop": "clothes"}}, {"type": "node", "id": 2292497128, "lat": 24.9941813, "lon": 121.3114087, "tags": {"check_date": "2024-12-01", "name": "\u666f\u946b\u73e0\u5bf6\u9280\u6a13", "shop": "jewelry"}}, {"type": "node", "id": 2292499658, "lat": 24.9943093, "lon": 121.3118878, "tags": {"addr:city": "\u6843\u5712\u5e02", "addr:country": "TW", "addr:district": "\u6843\u5712\u5340", "addr:housenumber": "41", "addr:street": "\u65b0\u6c11\u8857", "name": "\u6642\u5c1a\u6f14\u7e79", "shop": "hairdresser"}}, {"type": "node", "id": 2292501409, "lat": 24.9943485, "lon": 121.3119629, "tags": {"addr:city": "\u6843\u5712\u5e02", "addr:country": "TW", "addr:district": "\u6843\u5712\u5340", "addr:housenumber": "39", "addr:street": "\u65b0\u6c11\u8857", "name": "\u68ee\u65e5\u5f0f\u7cbe\u54c1", "shop": "clothes"}}, {"type": "node", "id": 2292509736, "lat": 24.9943485, "lon": 121.3118234, "tags": {"name": "\u90b7\u529b\u85dd\u8853\u6307\u7532\u7cbe\u54c1", "shop": "beauty"}}, {"type": "node", "id": 2292510601, "lat": 24.9943825, "lon": 121.3118771, "tags": {"name": "\u738b\u5927\u5409\u9280\u6a13\u79ae\u54c1", "shop": "jewelry"}}, {"type": "node", "id": 2304460693, "lat": 24.9456158, "lon": 121.2191423, "tags": {"addr:city": "\u6843\u5712\u5e02", "addr:country": "TW", "addr:district": "\u5e73\u93ae\u5340", "addr:housenumber": "216", "addr:postcode": "32441", "addr:street": "\u548c\u5e73\u8def", "branch": "\u5e73\u93ae\u632f\u8208\u5e97", "brand": "\u5168\u5bb6\u4fbf\u5229\u5546\u5e97", "brand:en": "FamilyMart", "brand:ja": "\u30d5\u30a1\u30df\u30ea\u30fc\u30de\u30fc\u30c8", "brand:wikidata": "Q10891564", "brand:wikipedia": "zh:\u5168\u5bb6\u4fbf\u5229\u5546\u5e97", "brand:zh": "\u5168\u5bb6\u4fbf\u5229\u5546\u5e97", "name": "\u5168\u5bb6\u4fbf\u5229\u5546\u5e97", "name:en": "FamilyMart", "name:zh": "\u5168\u5bb6\u4fbf\u5229\u5546\u5e97", "opening_hours": "24/7", "payment:ep_easycard": "yes", "payment:ep_ipass": "yes", "phone": "+886 3 457 6430", "shop": "convenience"}}, {"type": "node", "id": 2308914796, "lat": 25.0573449, "lon": 121.2892898, "tags": {"shop": "supermarket"}}, {"type": "node", "id": 2314085585, "lat": 24.9079288, "lon": 121.1678652}, {"type": "node", "id": 2316797742, "lat": 25.0158261, "lon": 121.311249, "tags": {"check_date": "2024-06-27", "name": "\u590f\u5361\u723e\u70d8\u7119\u574a", "shop": "bakery"}}, {"type": "node", "id": 2316799765, "lat": 25.0153454, "lon": 121.3099363, "tags": {"name": "\u5149\u6cc9\u6d0b\u7159\u9152", "shop": "alcohol"}}, {"type": "node", "id": 2316803860, "lat": 25.0157248, "lon": 121.3105977, "tags": {"amenity": "cafe", "brand": "50\u5d50", "brand:en": "50 Lan", "brand:wikidata": "Q106926258", "brand:zh": "50\u5d50", "cuisine": "bubble_tea", "name": "50\u5d50", "name:en": "50 Lan", "name:zh": "50\u5d50", "shop": "beverages", "takeaway": "yes"}}, {"type": "node", "id": 2316821623, "lat": 24.9843393, "lon": 121.2856289}, {"type": "node", "id": 2316822424, "lat": 24.9859848, "lon": 121.2851014}, {"type": "node", "id": 2316824413, "lat": 24.985358, "lon": 121.2850228}, {"type": "node", "id": 2316824414, "lat": 24.984993, "lon": 121.2850432}, {"type": "node", "id": 2385340039, "lat": 24.9543009, "lon": 121.2422516, "tags": {"addr:city": "\u6843\u5712\u5e02", "addr:country": "TW", "addr:district": "\u4e2d\u58e2\u5340", "addr:housenumber": "46", "addr:street": "\u5be6\u8e10\u8def", "alt_name": "\u7d71\u4e00\u8d85\u5546", "branch": "\u539f\u5927\u9580\u5e02", "brand": "7-Eleven", "brand:en": "7-Eleven", "brand:wikidata": "Q259340", "brand:wikipedia": "en:7-Eleven", "name": "7-Eleven", "opening_hours": "24/7", "payment:ep_easycard": "yes", "payment:ep_ipass": "yes", "shop": "convenience"}}, {"type": "node", "id": 2467431094, "lat": 25.0542883, "lon": 121.3763795, "tags": {"addr:city": "\u6843\u5712\u5e02", "addr:country": "TW", "addr:district": "\u9f9c\u5c71\u5340", "addr:housenumber": "86-6", "addr:street": "\u6587\u5316\u4e00\u8def", "addr:street:zh-Hans": "\u6843\u5712\u5e02?\u5c71?\u6587\u5316\u4e00\u8def", "alt_name": "\u7d71\u4e00\u8d85\u5546", "branch": "\u52c7\u5229\u9580\u5e02", "brand": "7-Eleven", "brand:en": "7-Eleven", "brand:wikidata": "Q259340", "brand:wikipedia": "en:7-Eleven", "designation": "Convenience store", "name": "7-Eleven", "old_addr:city": "\u6843\u5712\u7e23", "old_addr:district": "\u9f9c\u5c71\u9109", "old_addr:street:zh-simplified": "\u6587\u5316\u4e00\u8def", "shop": "convenience", "source": "http://www.7-11.com.tw/", "website": "https://www.7-11.com.tw/"}}, {"type": "node", "id": 2487953870, "lat": 24.9742187, "lon": 121.3207378, "tags": {"addr:city": "\u6843\u5712\u5e02", "addr:country": "TW", "addr:district": "\u6843\u5712\u5340", "addr:housenumber": "102", "addr:street": "\u6a39\u4ec1\u4e09\u8857", "alt_name": "\u7d71\u4e00\u8d85\u5546", "branch": "\u76ca\u5fd7\u9580\u5e02", "brand": "7-Eleven", "brand:en": "7-Eleven", "brand:wikidata": "Q259340", "brand:wikipedia": "en:7-Eleven", "name": "7-Eleven", "opening_hours": "24/7", "payment:ep_easycard": "yes", "payment:ep_ipass": "yes", "shop": "convenience"}}, {"type": "node", "id": 2495985657, "lat": 24.9404195, "lon": 121.216049, "tags": {"brand": "\u5168\u570b\u96fb\u5b50", "brand:en": "E-life Mall", "brand:wikidata": "Q10891540", "brand:wikipedia": "zh:\u5168\u570b\u96fb\u5b50", "name": "\u5168\u570b\u96fb\u5b50", "name:en": "E-life Mall", "name:zh": "\u5168\u570b\u96fb\u5b50", "shop": "electronics"}}, {"type": "node", "id": 2539188793, "lat": 25.0043002, "lon": 121.2517557, "tags": {"shop": "mall"}}, {"type": "node", "id": 2594651213, "lat": 24.9570332, "lon": 121.2036153, "tags": {"addr:city": "\u6843\u5712\u5e02", "addr:country": "TW", "addr:district": "\u5e73\u93ae\u5340", "addr:housenumber": "191", "addr:street": "\u6c11\u65cf\u8def\u4e8c\u6bb5", "atm": "yes", "branch": "\u5e73\u93ae\u6c11\u65cf\u5e97", "brand": "\u5168\u5bb6\u4fbf\u5229\u5546\u5e97", "brand:en": "FamilyMart", "brand:ja": "\u30d5\u30a1\u30df\u30ea\u30fc\u30de\u30fc\u30c8", "brand:wikidata": "Q10891564", "brand:zh": "\u5168\u5bb6\u4fbf\u5229\u5546\u5e97", "name": "\u5168\u5bb6\u4fbf\u5229\u5546\u5e97", "name:en": "FamilyMart", "name:zh": "\u5168\u5bb6\u4fbf\u5229\u5546\u5e97", "opening_hours": "24/7", "payment:ep_easycard": "yes", "payment:ep_ipass": "yes", "shop": "convenience", "toilets": "yes"}}, {"type": "node", "id": 2604243466, "lat": 25.018228, "lon": 121.2926658}, {"type": "node", "id": 2604243467, "lat": 25.0182366, "lon": 121.2928206, "tags": {"name": "\u6c38\u76db\u751f\u9bae\u8d85\u5e02", "shop": "supermarket"}}, {"type": "node", "id": 2614291391, "lat": 24.9595524, "lon": 121.1175389, "tags": {"name": "\u6851\u6d77\u7530\u5712", "shop": "farm"}}, {"type": "node", "id": 2633119170, "lat": 24.965438, "lon": 121.2325888, "tags": {"addr:city": "\u6843\u5712\u5e02", "addr:country": "TW", "addr:district": "\u4e2d\u58e2\u5340", "addr:housenumber": "126", "addr:street": "\u798f\u5dde\u4e00\u8857", "brand": "\u5168\u806f\u798f\u5229\u4e2d\u5fc3", "brand:en": "Pxmart", "brand:nan": "Cho\u00e2n-li\u00e2n Hok-l\u012b Tiong-sim", "brand:nan-Hant": "\u5168\u806f\u798f\u5229\u4e2d\u5fc3", "brand:nan-Latn-pehoeji": "Cho\u00e2n-li\u00e2n Hok-l\u012b Tiong-sim", "brand:nan-Latn-tailo": "Tsu\u00e2n-li\u00e2n Hok-l\u012b Tiong-sim", "brand:wikidata": "Q7262792", "brand:wikipedia": "en:PX Mart", "brand:zh": "\u5168\u806f\u798f\u5229\u4e2d\u5fc3", "name": "\u5168\u806f\u798f\u5229\u4e2d\u5fc3", "name:en": "Pxmart", "name:nan": "Cho\u00e2n-li\u00e2n Hok-l\u012b Tiong-sim", "name:nan-Hant": "\u5168\u806f\u798f\u5229\u4e2d\u5fc3", "name:nan-Latn-pehoeji": "Cho\u00e2n-li\u00e2n Hok-l\u012b Tiong-sim", "name:nan-Latn-tailo": "Tsu\u00e2n-li\u00e2n Hok-l\u012b Tiong-sim", "name:zh": "\u5168\u806f\u798f\u5229\u4e2d\u5fc3", "shop": "supermarket", "short_name": "\u5168\u806f", "short_name:nan": "Cho\u00e2n-li\u00e2n", "short_name:nan-Hant": "\u5168\u806f", "short_name:nan-Latn-pehoeji": "Cho\u00e2n-li\u00e2n", "short_name:nan-Latn-tailo": "Tsu\u00e2n-li\u00e2n", "short_name:zh": "\u5168\u806f"}}, {"type": "node", "id": 2656099274, "lat": 24.9364963, "lon": 121.0814343, "tags": {"addr:city": "\u6843\u5712\u5e02", "addr:country": "TW", "addr:district": "\u694a\u6885\u5340", "addr:housenumber": "95", "addr:street": "\u4e2d\u6b63\u8def", "alt_name": "\u5168\u5bb6\u4fbf\u5229\u5546\u5e97-\u5409\u6176\u9580\u5e02", "branch": "\u694a\u6885\u5bcc\u5ca1\u5e97", "brand": "\u5168\u5bb6\u4fbf\u5229\u5546\u5e97", "brand:en": "FamilyMart", "brand:ja": "\u30d5\u30a1\u30df\u30ea\u30fc\u30de\u30fc\u30c8", "brand:wikidata": "Q10891564", "brand:wikipedia": "zh:\u5168\u5bb6\u4fbf\u5229\u5546\u5e97", "brand:zh": "\u5168\u5bb6\u4fbf\u5229\u5546\u5e97", "name": "\u5168\u5bb6\u4fbf\u5229\u5546\u5e97", "name:en": "FamilyMart", "name:zh": "\u5168\u5bb6\u4fbf\u5229\u5546\u5e97", "opening_hours": "24/7", "payment:ep_easycard": "yes", "payment:ep_ipass": "yes", "shop": "convenience"}}, {"type": "node", "id": 2656099275, "lat": 24.9362818, "lon": 121.0818397, "tags": {"addr:city": "\u6843\u5712\u5e02", "addr:country": "TW", "addr:district": "\u694a\u6885\u5340", "addr:housenumber": "80", "addr:street": "\u4e2d\u6b63\u8def", "alt_name": "\u7d71\u4e00\u8d85\u5546", "branch": "\u5bcc\u8b49\u9580\u5e02", "brand": "7-Eleven", "brand:en": "7-Eleven", "brand:wikidata": "Q259340", "brand:wikipedia": "en:7-Eleven", "name": "7-Eleven", "opening_hours": "24/7", "payment:ep_easycard": "yes", "payment:ep_ipass": "yes", "shop": "convenience"}}, {"type": "node", "id": 2694219032, "lat": 24.9106123, "lon": 121.2794256, "tags": {"addr:city": "\u6843\u5712\u5e02", "addr:country": "TW", "addr:district": "\u5927\u6eaa\u5340", "addr:housenumber": "183", "addr:postcode": "335", "addr:street": "\u57d4\u9802\u8def\u4e8c\u6bb5", "alt_name": "\u7d71\u4e00\u8d85\u5546", "branch": "\u4ec1\u5584\u9580\u5e02", "brand": "7-Eleven", "brand:en": "7-Eleven", "brand:wikidata": "Q259340", "brand:wikipedia": "en:7-Eleven", "name": "7-Eleven", "opening_hours": "24/7", "phone": "+886 3 390 6270", "shop": "convenience"}}, {"type": "node", "id": 2694219033, "lat": 24.910396, "lon": 121.2798165, "tags": {"addr:city": "\u6843\u5712\u5e02", "addr:country": "TW", "addr:district": "\u5927\u6eaa\u5340", "addr:housenumber": "158", "addr:postcode": "335", "addr:street": "\u57d4\u9802\u8def\u4e8c\u6bb5", "branch": "\u5927\u6eaa\u57d4\u9802\u5e97", "brand": "\u5168\u5bb6\u4fbf\u5229\u5546\u5e97", "brand:en": "FamilyMart", "brand:ja": "\u30d5\u30a1\u30df\u30ea\u30fc\u30de\u30fc\u30c8", "brand:wikidata": "Q10891564", "brand:zh": "\u5168\u5bb6\u4fbf\u5229\u5546\u5e97", "name": "\u5168\u5bb6\u4fbf\u5229\u5546\u5e97", "name:en": "FamilyMart", "name:zh": "\u5168\u5bb6\u4fbf\u5229\u5546\u5e97", "opening_hours": "24/7", "payment:ep_easycard": "yes", "payment:ep_ipass": "yes", "phone": "+886 3 390 7337", "shop": "convenience"}},